,Provider Number,Hospital Name,Address 1,lat,lng,City,State,ZIP Code,County,Phone Number,Hospital Type,Hospital Ownership,Emergency Services
0,010001,SOUTHEAST ALABAMA MEDICAL CENTER,1108 ROSS CLARK CIRCLE,31.21555,-85.36257,DOTHAN,AL,36301,HOUSTON,3347938701,Acute Care Hospitals,Government - Hospital District or Authority,Yes
1,010005,MARSHALL MEDICAL CENTER SOUTH,2505 U S HIGHWAY 431 NORTH,34.22145,-86.1594,BOAZ,AL,35957,MARSHALL,2565938310,Acute Care Hospitals,Government - Hospital District or Authority,Yes
2,010006,ELIZA COFFEE MEMORIAL HOSPITAL,205 MARENGO STREET,34.79511,-87.68516,FLORENCE,AL,35631,LAUDERDALE,2567688400,Acute Care Hospitals,Government - Hospital District or Authority,Yes
3,010007,MIZELL MEMORIAL HOSPITAL,702 N MAIN ST,31.29216,-86.25543,OPP,AL,36467,COVINGTON,3344933541,Acute Care Hospitals,Voluntary non-profit - Private,Yes
4,010008,CRENSHAW COMMUNITY HOSPITAL,101 HOSPITAL CIRCLE,31.69341,-86.26536,LUVERNE,AL,36049,CRENSHAW,3343353374,Acute Care Hospitals,Proprietary,Yes
5,010009,HARTSELLE MEDICAL CENTER,201 PINE STREET NORTHWEST,34.44578,-86.93637,HARTSELLE,AL,35640,MORGAN,2567736511,Acute Care Hospitals,Proprietary,No
6,010010,MARSHALL MEDICAL CENTER NORTH,8000 ALABAMA HIGHWAY 69,34.36525,-86.42141,GUNTERSVILLE,AL,35976,MARSHALL,2565718000,Acute Care Hospitals,Government - Hospital District or Authority,Yes
7,010011,ST VINCENT'S EAST,50 MEDICAL PARK EAST DRIVE,33.59576,-86.66736,BIRMINGHAM,AL,35235,JEFFERSON,2058383122,Acute Care Hospitals,Voluntary non-profit - Private,Yes
8,010012,DEKALB REGIONAL MEDICAL CENTER,200 MED CENTER DRIVE,34.4406,-85.7572,FORT PAYNE,AL,35968,DE KALB,2568453150,Acute Care Hospitals,Proprietary,Yes
9,010015,SOUTHWEST ALABAMA MEDICAL CENTER,33700 HIGHWAY 43,31.93087,-87.73831,THOMASVILLE,AL,36784,CLARKE,3346366221,Acute Care Hospitals,Proprietary,No
10,010016,SHELBY BAPTIST MEDICAL CENTER,1000 FIRST STREET NORTH,33.25218,-86.81363,ALABASTER,AL,35007,SHELBY,2056208100,Acute Care Hospitals,Voluntary non-profit - Church,Yes
11,010018,CALLAHAN EYE FOUNDATION HOSPITAL,1720 UNIVERSITY BLVD,33.50346,-86.80291,BIRMINGHAM,AL,35233,JEFFERSON,2053258100,Acute Care Hospitals,Voluntary non-profit - Private,Yes
12,010019,HELEN KELLER MEMORIAL HOSPITAL,1300 SOUTH MONTGOMERY AVENUE,34.74653,-87.69903,SHEFFIELD,AL,35660,COLBERT,2563864556,Acute Care Hospitals,Government - Hospital District or Authority,Yes
13,010021,DALE MEDICAL CENTER,126 HOSPITAL AVE,31.45177,-85.63111,OZARK,AL,36360,DALE,3347742601,Acute Care Hospitals,Government - Hospital District or Authority,Yes
14,010022,CHEROKEE MEDICAL CENTER,400 NORTHWOOD DR,34.16278,-85.64348,CENTRE,AL,35960,CHEROKEE,2569275531,Acute Care Hospitals,Voluntary non-profit - Private,Yes
15,010023,BAPTIST MEDICAL CENTER SOUTH,2105 EAST SOUTH BOULEVARD,32.32739,-86.2767,MONTGOMERY,AL,36116,MONTGOMERY,3342882100,Acute Care Hospitals,Voluntary non-profit - Church,Yes
16,010024,JACKSON HOSPITAL & CLINIC INC,1725 PINE STREET,32.36682,-86.28498,MONTGOMERY,AL,36106,MONTGOMERY,3342938000,Acute Care Hospitals,Voluntary non-profit - Private,Yes
17,010025,GEORGE H. LANIER MEMORIAL HOSPITAL,4800 48TH ST,32.82372,-85.16978,VALLEY,AL,36854,CHAMBERS,3347561400,Acute Care Hospitals,Voluntary non-profit - Other,Yes
18,010027,ELBA GENERAL HOSPITAL,987 DRAYTON STREET,31.42913,-86.07626,ELBA,AL,36323,COFFEE,3348972257,Acute Care Hospitals,Government - Hospital District or Authority,Yes
19,010029,EAST ALABAMA MEDICAL CENTER AND SNF,2000 PEPPERELL PARKWAY,32.64045,-85.40394,OPELIKA,AL,36801,LEE,3347493411,Acute Care Hospitals,Government - Hospital District or Authority,Yes
20,010032,WEDOWEE HOSPITAL,209 NORTH MAIN STREET,33.31154,-85.48495,WEDOWEE,AL,36278,RANDOLPH,2563572111,Acute Care Hospitals,Government - Local,Yes
21,010033,UNIVERSITY OF ALABAMA HOSPITAL,619 SOUTH 19TH STREET,33.50614,-86.8019,BIRMINGHAM,AL,35233,JEFFERSON,2059344011,Acute Care Hospitals,Government - State,Yes
22,010034,COMMUNITY HOSPITAL INC,805 FRIENDSHIP ROAD,32.53554,-85.90654,TALLASSEE,AL,36078,ELMORE,3342836541,Acute Care Hospitals,Voluntary non-profit - Private,Yes
23,010035,CULLMAN REGIONAL MEDICAL CENTER,1912 ALABAMA HIGHWAY 157,34.19856,-86.80417,CULLMAN,AL,35058,CULLMAN,2567372000,Acute Care Hospitals,Government - Hospital District or Authority,Yes
24,010036,ANDALUSIA REGIONAL HOSPITAL,849 SOUTH THREE NOTCH STREET,31.29777,-86.49519,ANDALUSIA,AL,36420,COVINGTON,3342228466,Acute Care Hospitals,Proprietary,Yes
25,010038,STRINGFELLOW MEMORIAL HOSPITAL,301 EAST 18TH ST,33.66766,-85.8247,ANNISTON,AL,36201,CALHOUN,2562358900,Acute Care Hospitals,Proprietary,Yes
26,010039,HUNTSVILLE HOSPITAL,101 SIVLEY RD,34.7213,-86.58125,HUNTSVILLE,AL,35801,MADISON,2562651000,Acute Care Hospitals,Government - Hospital District or Authority,Yes
27,010040,GADSDEN REGIONAL MEDICAL CENTER,1007 GOODYEAR AVENUE,34.00941,-85.96781,GADSDEN,AL,35903,ETOWAH,2564944000,Acute Care Hospitals,Proprietary,Yes
28,010043,CHILTON MEDICAL CENTER,1010 LAY DAM ROAD,32.85416,-86.62275,CLANTON,AL,35045,CHILTON,2057552500,Acute Care Hospitals,Voluntary non-profit - Private,Yes
29,010044,MARION REGIONAL MEDICAL CENTER,1256 MILITARY STREET SOUTH,34.12659,-87.99044,HAMILTON,AL,35570,MARION,2059216200,Acute Care Hospitals,Voluntary non-profit - Private,Yes
30,010045,FAYETTE MEDICAL CENTER,1653 TEMPLE AVENUE NORTH,33.70772,-87.82372,FAYETTE,AL,35555,FAYETTE,2059325966,Acute Care Hospitals,Voluntary non-profit - Other,Yes
31,010046,RIVERVIEW REGIONAL MEDICAL CENTER,600 SOUTH THIRD STREET,34.0034,-86.00412,GADSDEN,AL,35901,ETOWAH,2565435200,Acute Care Hospitals,Proprietary,Yes
32,010047,GEORGIANA HOSPITAL,515 MIRANDA ST,31.63636,-86.74274,GEORGIANA,AL,36033,BUTLER,3343762205,Acute Care Hospitals,Voluntary non-profit - Private,Yes
33,010049,MEDICAL CENTER ENTERPRISE,400 N EDWARDS STREET,31.31847,-85.8551,ENTERPRISE,AL,36330,COFFEE,3343470584,Acute Care Hospitals,Proprietary,Yes
34,010050,ST VINCENTS BLOUNT,150 GILBREATH DRIVE,33.93242,-86.49273,ONEONTA,AL,35121,BLOUNT,2052743000,Acute Care Hospitals,Voluntary non-profit - Private,Yes
35,010051,GREENE COUNTY HOSPITAL,509 WILSON AVENUE,32.84232,-87.89001,EUTAW,AL,35462,GREENE,2053723388,Acute Care Hospitals,Government - Local,Yes
36,010052,LAKE MARTIN COMMUNITY HOSPITAL,201 MARIARDEN ROAD,32.81918,-85.74184,DADEVILLE,AL,36853,TALLAPOOSA,2568257821,Acute Care Hospitals,Proprietary,Yes
37,010054,PARKWAY MEDICAL CENTER,1874 BELTLINE RD SW,34.57674,-87.01602,DECATUR,AL,35601,MORGAN,2563502211,Acute Care Hospitals,Proprietary,Yes
38,010055,FLOWERS HOSPITAL,4370 WEST MAIN STREET,31.2381,-85.45754,DOTHAN,AL,36305,HOUSTON,3347935000,Acute Care Hospitals,Proprietary,Yes
39,010056,ST VINCENT'S BIRMINGHAM,810 ST VINCENT'S DRIVE,33.50883,-86.78945,BIRMINGHAM,AL,35205,JEFFERSON,2059397000,Acute Care Hospitals,Voluntary non-profit - Other,Yes
40,010058,BIBB MEDICAL CENTER,208 PIERSON AVE,32.95133,-87.1476,CENTREVILLE,AL,35042,BIBB,2059264881,Acute Care Hospitals,Government - Hospital District or Authority,Yes
41,010059,LAWRENCE MEDICAL CENTER,202 HOSPITAL STREET,34.48292,-87.28604,MOULTON,AL,35650,LAWRENCE,2569742200,Acute Care Hospitals,Government - Hospital District or Authority,Yes
42,010061,HIGHLANDS MEDICAL CENTER,380 WOODS COVE ROAD,34.66226,-86.04671,SCOTTSBORO,AL,35768,JACKSON,2562594444,Acute Care Hospitals,Government - Hospital District or Authority,Yes
43,010062,WIREGRASS MEDICAL CENTER,1200 W MAPLE AVENUE,31.0489,-85.8909,GENEVA,AL,36340,GENEVA,3346843655,Acute Care Hospitals,Government - Hospital District or Authority,Yes
44,010065,RUSSELL HOSPITAL,3316 HIGHWAY 280,32.93136,-85.96878,ALEXANDER CITY,AL,35010,TALLAPOOSA,2563297100,Acute Care Hospitals,Voluntary non-profit - Private,Yes
45,010066,FLORALA MEMORIAL HOSPITAL,24273 FIFTH AVENUE,30.99983,-86.31334,FLORALA,AL,36442,COVINGTON,3348583287,Acute Care Hospitals,Proprietary,Yes
46,010069,MEDICAL CENTER BARBOUR,820 W WASHINGTON ST,31.88845,-85.15622,EUFAULA,AL,36027,BARBOUR,3346887271,Acute Care Hospitals,Government - Hospital District or Authority,Yes
47,010073,CLAY COUNTY HOSPITAL,83825 HIGHWAY 9    P O BOX 1270,33.27668,-85.82347,ASHLAND,AL,36251,CLAY,2563542131,Acute Care Hospitals,Government - Hospital District or Authority,Yes
48,010078,NORTHEAST ALABAMA REGIONAL MED CENTER,400 EAST 10TH STREET,33.6571,-85.82343,ANNISTON,AL,36207,CALHOUN,2562355121,Acute Care Hospitals,Government - Local,Yes
49,010079,ATHENS-LIMESTONE HOSPITAL,700 WEST MARKET STREET,34.80371,-86.97834,ATHENS,AL,35611,LIMESTONE,2562339292,Acute Care Hospitals,Government - Hospital District or Authority,Yes
50,010083,SOUTH BALDWIN REGIONAL MEDICAL CENTER,1613 NORTH MCKENZIE STREET,30.42591,-87.68394,FOLEY,AL,36535,BALDWIN,2519493400,Acute Care Hospitals,Proprietary,Yes
51,010085,DECATUR GENERAL HOSPITAL,1201 7TH STREET SE,34.59091,-86.97205,DECATUR,AL,35609,MORGAN,2563412000,Acute Care Hospitals,Government - Hospital District or Authority,Yes
52,010086,NORTHWEST MEDICAL CENTER,1530 U S HIGHWAY 43,33.92992,-87.82477,WINFIELD,AL,35594,MARION,2054877736,Acute Care Hospitals,Proprietary,Yes
53,010087,UNIV OF SOUTH ALABAMA MEDICAL CENTER,2451 FILLINGIM STREET,30.70809,-88.10451,MOBILE,AL,36617,MOBILE,2514717110,Acute Care Hospitals,Government - State,Yes
54,010089,WALKER BAPTIST MEDICAL CENTER,3400 HIGHWAY 78 EAST,33.84102,-87.23656,JASPER,AL,35502,WALKER,2053874000,Acute Care Hospitals,Voluntary non-profit - Private,Yes
55,010090,PROVIDENCE HOSPITAL,6801 AIRPORT BOULEVARD,30.67989,-88.20012,MOBILE,AL,36608,MOBILE,2516331000,Acute Care Hospitals,Voluntary non-profit - Church,Yes
56,010091,GROVE HILL MEMORIAL HOSPITAL,295 JACKSON HWY S,31.72261,-87.77233,GROVE HILL,AL,36451,CLARKE,2512753191,Acute Care Hospitals,Government - Local,Yes
57,010092,D C H REGIONAL MEDICAL CENTER,809 UNIVERSITY BOULEVARD EAST,33.2057,-87.52686,TUSCALOOSA,AL,35401,TUSCALOOSA,2057597111,Acute Care Hospitals,Government - Hospital District or Authority,Yes
58,010095,HALE COUNTY HOSPITAL,508 GREEN STREET,32.69472,-87.58692,GREENSBORO,AL,36744,HALE,3346243024,Acute Care Hospitals,Voluntary non-profit - Other,Yes
59,010097,ELMORE COMMUNITY HOSPITAL,500 HOSPITAL DRIVE,32.55226,-86.18707,WETUMPKA,AL,36092,ELMORE,3345674311,Acute Care Hospitals,Government - State,Yes
60,010099,D W MCMILLAN MEMORIAL HOSPITAL,1301 BELLEVILLE AVENUE,31.12708,-87.07253,BREWTON,AL,36426,ESCAMBIA,2518678061,Acute Care Hospitals,Government - Hospital District or Authority,Yes
61,010100,THOMAS HOSPITAL,750 MORPHY AVENUE,30.51939,-87.88909,FAIRHOPE,AL,36532,BALDWIN,2519282375,Acute Care Hospitals,Government - Hospital District or Authority,Yes
62,010101,CITIZENS BAPTIST MEDICAL CENTER,604 STONE AVENUE,33.43978,-86.09088,TALLADEGA,AL,35161,TALLADEGA,2567614542,Acute Care Hospitals,Voluntary non-profit - Private,Yes
63,010102,J PAUL JONES HOSPITAL,317 MCWILLIAMS AVENUE,31.99804,-87.29945,CAMDEN,AL,36726,WILCOX,3346824131,Acute Care Hospitals,Government - Hospital District or Authority,Yes
64,010103,BAPTIST MEDICAL CENTER-PRINCETON,701 PRINCETON AVENUE SOUTHWEST,33.49907,-86.84611,BIRMINGHAM,AL,35211,JEFFERSON,2057833800,Acute Care Hospitals,Voluntary non-profit - Church,Yes
65,010104,TRINITY MEDICAL CENTER,800 MONTCLAIR RD,33.51527,-86.74675,BIRMINGHAM,AL,35213,JEFFERSON,2055921000,Acute Care Hospitals,Proprietary,Yes
66,010108,PRATTVILLE BAPTIST HOSPITAL,124 S MEMORIAL DR,32.4642,-86.45175,PRATTVILLE,AL,36067,AUTAUGA,3343614267,Acute Care Hospitals,Government - Hospital District or Authority,Yes
67,010109,PICKENS COUNTY MEDICAL CENTER,241 ROBERT K WILSON,33.27477,-88.08968,CARROLLTON,AL,35447,PICKENS,2053678111,Acute Care Hospitals,Government - Hospital District or Authority,Yes
68,010110,BULLOCK COUNTY HOSPITAL,102 WEST CONECUH AVENUE,32.14619,-85.71703,UNION SPRINGS,AL,36089,BULLOCK,3347382140,Acute Care Hospitals,Proprietary,Yes
69,010112,BRYAN W WHITFIELD MEM HOSP INC,105 HIGHWAY 80 EAST,32.50423,-87.83669,DEMOPOLIS,AL,36732,MARENGO,3342894000,Acute Care Hospitals,Government - Hospital District or Authority,Yes
70,010113,MOBILE INFIRMARY,5 MOBILE INFIRMARY CIRCLE,30.69602,-88.0801,MOBILE,AL,36652,MOBILE,2514354700,Acute Care Hospitals,Voluntary non-profit - Private,Yes
71,010114,"MEDICAL WEST, AN AFFILIATE OF UAB HEALTH SYSTEM",995 9TH AVENUE SOUTHWEST,33.37264,-86.99114,BESSEMER,AL,35021,JEFFERSON,2054817000,Acute Care Hospitals,Voluntary non-profit - Other,Yes
72,010118,VAUGHAN REG MED CENTER PARKWAY CAMPUS,1015 MEDICAL CENTER PARKWAY,32.42928,-87.05545,SELMA,AL,36701,DALLAS,3344184100,Acute Care Hospitals,Proprietary,Yes
73,010120,MONROE COUNTY HOSPITAL,2016 SOUTH ALABAMA AVENUE,31.49835,-87.31927,MONROEVILLE,AL,36461,MONROE,2515753111,Acute Care Hospitals,Government - Local,Yes
74,010125,LAKELAND COMMUNITY HOSPITAL,42024 HIGHWAY 195 E     POST OFFICE BOX 780,34.24104,-87.59097,HALEYVILLE,AL,35565,WINSTON,2054857117,Acute Care Hospitals,Voluntary non-profit - Church,Yes
75,010126,TROY REGIONAL MEDICAL CENTER,1330 HIGHWAY 231 SOUTH,31.78126,-85.94505,TROY,AL,36081,PIKE,3346705000,Acute Care Hospitals,Government - Federal,Yes
76,010128,JACKSON MEDICAL CENTER,220 HOSPITAL DRIVE,31.53148,-87.89526,JACKSON,AL,36545,CLARKE,2512469021,Acute Care Hospitals,Proprietary,Yes
77,010129,NORTH BALDWIN INFIRMARY,1815 HAND AVENUE,30.9024,-87.7833,BAY MINETTE,AL,36507,BALDWIN,2519375521,Acute Care Hospitals,Voluntary non-profit - Private,Yes
78,010130,ST VINCENT'S ST CLAIR,7063 VETERANS PARKWAY,33.60429,-86.30155,PELL CITY,AL,35125,SAINT CLAIR,2053383301,Acute Care Hospitals,Voluntary non-profit - Private,Yes
79,010131,CRESTWOOD MEDICAL CENTER,ONE HOSPITAL DR SE,34.69426,-86.57285,HUNTSVILLE,AL,35801,MADISON,2568823100,Acute Care Hospitals,Proprietary,Yes
80,010137,COOPER GREEN MERCY HOSPITAL,1515 6TH AVENUE SOUTH,33.50368,-86.80711,BIRMINGHAM,AL,35233,JEFFERSON,2059303200,Acute Care Hospitals,Government - Local,Yes
81,010138,HILL HOSPITAL OF SUMTER COUNTY,751 DERBY DRIVE,32.49163,-88.29597,YORK,AL,36925,SUMTER,2053925263,Acute Care Hospitals,Voluntary non-profit - Other,Yes
82,010139,BROOKWOOD MEDICAL CENTER,2010 BROOKWOOD MEDICAL CENTER DRIVE,33.46291,-86.77685,BIRMINGHAM,AL,35209,JEFFERSON,2058771000,Acute Care Hospitals,Proprietary,Yes
83,010144,SPRINGHILL MEDICAL CENTER,3719 DAUPHIN STREET,30.68463,-88.13103,MOBILE,AL,36608,MOBILE,2513449630,Acute Care Hospitals,Proprietary,Yes
84,010145,NORTHPORT MEDICAL CENTER,2700 HOSPITAL DRIVE,33.23329,-87.5712,NORTHPORT,AL,35476,TUSCALOOSA,2053334500,Acute Care Hospitals,Government-Hospital District or Authority,Yes
85,010146,JACKSONVILLE MEDICAL CENTER,1701 SOUTH PELHAM ROAD,33.78562,-85.76122,JACKSONVILLE,AL,36265,CALHOUN,2567824538,Acute Care Hospitals,Proprietary,Yes
86,010148,EVERGREEN MEDICAL CENTER,101 CRESTVIEW AVENUE,31.431,-86.94129,EVERGREEN,AL,36401,CONECUH,2515782480,Acute Care Hospitals,Proprietary,Yes
87,010149,BAPTIST MEDICAL CENTER EAST,400 TAYLOR ROAD,32.37651,-86.17191,MONTGOMERY,AL,36117,MONTGOMERY,3342448330,Acute Care Hospitals,Government - Hospital District or Authority,Yes
88,01014F,BIRMINGHAM VA MEDICAL CENTER,700 SOUTH 19TH STREET,33.50511,-86.8012,BIRMINGHAM                    ,AL,35233,JEFFERSON,2059334515,ACUTE CARE - VETERANS ADMINISTRATION,Government Federal,Yes
89,010150,L V STABLER MEMORIAL HOSPITAL,29 L V STABLER DRIVE,31.82945,-86.64586,GREENVILLE,AL,36037,BUTLER,3343822200,Acute Care Hospitals,Proprietary,Yes
90,010152,INFIRMARY WEST,5600 GIRBY RD,30.61832,-88.17136,MOBILE,AL,36693,MOBILE,2516605236,Acute Care Hospitals,Government - State,Yes
91,010157,SHOALS HOSPITAL,201 WEST AVALON AVENUE,34.74685,-87.67618,MUSCLE SHOALS,AL,35661,COLBERT,2563861601,Acute Care Hospitals,Government - Hospital District or Authority,Yes
92,010158,RUSSELLVILLE HOSPITAL,15155 HIGHWAY 43,34.51116,-87.71771,RUSSELLVILLE,AL,35653,FRANKLIN,2563321611,Acute Care Hospitals,Proprietary,Yes
93,010164,COOSA VALLEY MEDICAL CENTER,315 W HICKORY ST,33.16425,-86.25455,SYLACAUGA,AL,35150,TALLADEGA,2562495000,Acute Care Hospitals,Voluntary non-profit - Other,Yes
94,010167,UAB HIGHLANDS,1201 11TH AVENUE SOUTH,33.49526,-86.80652,BIRMINGHAM,AL,35205,JEFFERSON,2059307000,Acute Care Hospitals,Government-Hospital District or Authority,Yes
95,010168,JACK HUGHSTON MEMORIAL HOSPITAL,4401 RIVER CHASE DRIVE,32.50902,-85.00582,PHENIX CITY,AL,36867,RUSSELL,3347323000,Acute Care Hospitals,Government - State,Yes
96,010169,ATMORE COMMUNITY HOSPITAL,401 MEDICAL PARK DRIVE,31.01748,-87.4785,ATMORE,AL,36502,ESCAMBIA,2513682500,Acute Care Hospitals,Government - Hospital District or Authority,Yes
97,01019F,VA CENTRAL ALABAMA HEALTHCARE SYSTEM - MONTGOMERY,215 PERRY HILL ROAD,32.37949,-86.24654,MONTGOMERY                    ,AL,36109,MONTGOMERY,3342604100,ACUTE CARE - VETERANS ADMINISTRATION,Government Federal,Yes
98,01021F,TUSCALOOSA VA MEDICAL CENTER,3701 LOOP ROAD,33.1914,-87.48585,TUSCALOOSA                    ,AL,35404,TUSCALOOSA,2055542000,ACUTE CARE - VETERANS ADMINISTRATION,Government Federal,Yes
99,011300,WASHINGTON COUNTY HOSPITAL,14600 ST. STEPHENS AVENUE,31.46022,-88.23512,CHATOM,AL,36518,WASHINGTON,2518472223,Critical Access Hospitals,Voluntary non-profit - Other,Yes
100,011302,RED BAY HOSPITAL,211 HOSPITAL ROAD,34.45746,-88.14705,RED BAY,AL,35582,FRANKLIN,2563569532,Critical Access Hospitals,Government - Hospital District or Authority,Yes
101,013301,UNIV OF S AL CHILDREN'S & WOMEN'S HOS,1700 CENTER STREET,30.6975,-88.07781,MOBILE,AL,36604,MOBILE,2514151000,Childrens,Government - State,Yes
102,020001,PROVIDENCE ALASKA MEDICAL CENTER,BOX 196604,61.18385,-149.98801,ANCHORAGE,AK,99519,ANCHORAGE,9072613675,Acute Care Hospitals,Voluntary non-profit - Private,Yes
103,020006,MAT-SU REGIONAL MEDICAL CENTER,2500 SOUTH WOODWORTH LOOP,61.56237,-149.25811,PALMER,AK,99645,MATANUSKA SUSITNA,9077468600,Acute Care Hospitals,Voluntary non-profit - Private,Yes
104,020008,BARTLETT REGIONAL HOSPITAL,3260 HOSPITAL DR,58.32869,-134.46427,JUNEAU,AK,99801,JUNEAU,9077968900,Acute Care Hospitals,Proprietary,Yes
105,020012,FAIRBANKS MEMORIAL HOSPITAL,1650 COWLES STREET,64.83129,-147.73826,FAIRBANKS,AK,99701,FAIRBANKS NORTH STAR,9074528181,Acute Care Hospitals,Voluntary non-profit - Other,Yes
106,020017,ALASKA REGIONAL HOSPITAL,2801 DEBARR ROAD,61.21036,-149.82826,ANCHORAGE,AK,99508,ANCHORAGE,9072761131,Acute Care Hospitals,Proprietary,Yes
107,020018,YUKON KUSKOKWIM DELTA REG HOSPITAL,PO BOX 287,60.79434,-161.76092,BETHEL,AK,99559,BETHEL,9075436300,Acute Care Hospitals,Government - Federal,Yes
108,020024,CENTRAL PENINSULA GENERAL HOSPITAL,250 HOSPITAL PLACE,60.49371,-151.07785,SOLDOTNA,AK,99669,KENAI PENINSULA,9072624404,Acute Care Hospitals,Voluntary non-profit - Other,Yes
109,020026,ALASKA NATIVE MEDICAL CENTER,4315 DIPLOMACY DR,61.18191,-149.8002,ANCHORAGE,AK,99508,ANCHORAGE,9075632662,Acute Care Hospitals,Government - Federal,Yes
110,020027,MT EDGECUMBE HOSPITAL,222 TONGASS DR,57.05187,-135.35484,SITKA,AK,99835,SITKA,9079662411,Acute Care Hospitals,Voluntary non-profit - Private,Yes
111,021301,PROVIDENCE VALDEZ MEDICAL CENTER,PO BOX 550,61.09674,-146.51893,VALDEZ,AK,99686,VALDEZ CORDOVA,9078352249,Critical Access Hospitals,Government - Local,Yes
112,021302,PROVIDENCE SEWARD HOSPITAL,"417 FIRST AVENUE, PO BOX 365",60.10537,-149.44548,SEWARD,AK,99664,KENAI PENINSULA,9072245205,Critical Access Hospitals,Government - Local,Yes
113,021303,SITKA COMMUNITY HOSPITAL,209 MOLLER DRIVE,57.05861,-135.34521,SITKA,AK,99835,SITKA,9077473241,Critical Access Hospitals,Government - Local,Yes
114,021304,PETERSBURG MEDICAL CENTER, PO BOX 589,56.80782,-132.96992,PETERSBURG,AK,99833,,9077724291,Critical Access Hospitals,Voluntary non-profit - Other,Yes
115,021305,WRANGELL MEDICAL CENTER,310 BENNETT STREET PO BOX 1081,56.47276,-132.37556,WRANGELL,AK,99929,,9078747000,Critical Access Hospitals,Government - Local,Yes
116,021306,PROVIDENCE KODIAK ISLAND MEDICAL CTR,1915 EAST REZANOF DRIVE,57.80088,-152.37399,KODIAK,AK,99615,KODIAK ISLAND,9074869592,Critical Access Hospitals,Voluntary non-profit - Private,Yes
117,021307,CORDOVA COMMUNITY MEDICAL CENTER,PO BOX 160 - 602 CHASE AVENUE,60.54067,-145.75549,CORDOVA,AK,99574,VALDEZ CORDOVA,9074248000,Critical Access Hospitals,Government - Local,Yes
118,021308,NORTON SOUND REGIONAL HOSPITAL,"306 WEST 5TH AVENUE, P O BOX 966",64.49776,-165.38672,NOME,AK,99762,NOME,9074433311,Critical Access Hospitals,Voluntary non-profit - Private,Yes
119,021311,PEACEHEALTH KETCHIKAN MEDICAL             CENTER,3100 TONGASS AVENUE,55.3542,-131.68783,KETCHIKAN,AK,99901,KETCHIKAN GATEWAY,9072255171,Critical Access Hospitals,Voluntary non-profit - Church,Yes
120,021313,SOUTH PENINSULA HOSPITAL,4300 BARTLETT ST,59.65208,-151.55017,HOMER,AK,99603,KENAI PENINSULA,9072358101,Critical Access Hospitals,Government - Local,Yes
121,030001,MARYVALE HOSPITAL,5102 WEST CAMPBELL AVENUE,33.50268,-112.17099,PHOENIX,AZ,85031,MARICOPA,6238485000,Acute Care Hospitals,Proprietary,Yes
122,030002,BANNER GOOD SAMARITAN MEDICAL CENTER,1111 EAST MCDOWELL ROAD,33.46463,-112.05999,PHOENIX,AZ,85006,MARICOPA,6022394200,Acute Care Hospitals,Voluntary non-profit - Other,Yes
123,030006,TUCSON MEDICAL CENTER,5301 EAST GRANT ROAD,32.25215,-110.8797,TUCSON,AZ,85712,PIMA,5203275461,Acute Care Hospitals,Voluntary non-profit - Private,Yes
124,030007,VERDE VALLEY MEDICAL CENTER,269 SOUTH CANDY LANE,34.73516,-112.03,COTTONWOOD,AZ,86326,YAVAPAI,9286396000,Acute Care Hospitals,Voluntary non-profit - Private,Yes
125,030010,CARONDELET ST  MARYS HOSPITAL,1601 WEST ST MARY'S ROAD,32.22892,-111.00017,TUCSON,AZ,85745,PIMA,5208723000,Acute Care Hospitals,Voluntary non-profit - Private,Yes
126,030011,CARONDELET ST JOSEPHS HOSPITAL,350 NORTH WILMOT ROAD,32.22596,-110.85761,TUCSON,AZ,85711,PIMA,5208733000,Acute Care Hospitals,Voluntary non-profit - Church,Yes
127,030012,YAVAPAI REGIONAL MEDICAL CENTER,1003 WILLOW CREEK ROAD,34.55902,-112.48195,PRESCOTT,AZ,86301,YAVAPAI,9284452700,Acute Care Hospitals,Voluntary non-profit - Private,Yes
128,030013,YUMA REGIONAL MEDICAL CENTER,2400 SOUTH AVENUE A,32.68196,-114.63545,YUMA,AZ,85364,YUMA,9283367275,Acute Care Hospitals,Voluntary non-profit - Private,Yes
129,030014,JOHN C LINCOLN NORTH MOUNTAIN HOSPITAL,250 EAST DUNLAP AVENUE,33.56916,-112.07126,PHOENIX,AZ,85020,MARICOPA,6028706060,Acute Care Hospitals,Proprietary,Yes
130,030016,CASA GRANDE REGIONAL MEDICAL CENTER,1800 EAST FLORENCE BOULEVARD,32.88153,-111.70917,CASA GRANDE,AZ,85222,PINAL,5203816453,Acute Care Hospitals,Voluntary non-profit - Other,Yes
131,030022,MARICOPA MEDICAL CENTER,2601 EAST ROOSEVELT STREET,33.45854,-112.02587,PHOENIX,AZ,85008,MARICOPA,6023445011,Acute Care Hospitals,Government - Local,Yes
132,030023,FLAGSTAFF MEDICAL CENTER,1200 NORTH BEAVER STREET,35.20863,-111.64521,FLAGSTAFF,AZ,86001,COCONINO,9287732009,Acute Care Hospitals,Voluntary non-profit - Private,Yes
133,030024,ST JOSEPH'S HOSPITAL AND MEDICAL CENTER,350 WEST THOMAS ROAD,33.48178,-112.08003,PHOENIX,AZ,85013,MARICOPA,6024063000,Acute Care Hospitals,Voluntary non-profit - Church,Yes
134,030030,PHOENIX BAPTIST HOSPITAL,2000 WEST BETHANY HOME ROAD,33.5251,-112.1019,PHOENIX,AZ,85015,MARICOPA,6022490212,Acute Care Hospitals,Proprietary,Yes
135,030033,PAYSON REGIONAL MEDICAL CENTER,807 SOUTH PONDEROSA DRIVE,34.23043,-111.32117,PAYSON,AZ,85541,GILA,9284743222,Acute Care Hospitals,Voluntary non-profit - Other,Yes
136,030036,CHANDLER REGIONAL MEDICAL CENTER,475 SOUTH DOBSON ROAD,33.29814,-111.87461,CHANDLER,AZ,85224,MARICOPA,4809634561,Acute Care Hospitals,Voluntary non-profit - Other,Yes
137,030037,ST LUKES MEDICAL CENTER,1800 EAST VAN BUREN STREET,33.45142,-112.04327,PHOENIX,AZ,85006,MARICOPA,6022518156,Acute Care Hospitals,Proprietary,Yes
138,030038,SCOTTSDALE HEALTHCARE-OSBORN MEDICAL CENTER,7400 EAST OSBORN ROAD,33.4879,-111.92227,SCOTTSDALE,AZ,85251,MARICOPA,4808824000,Acute Care Hospitals,Proprietary,Yes
139,030043,SIERRA VISTA REGIONAL HEALTH CENTER INC,300 EL CAMINO REAL,31.55136,-110.27235,SIERRA VISTA,AZ,85635,COCHISE,5204584641,Acute Care Hospitals,Voluntary non-profit - Other,Yes
140,030055,KINGMAN REGIONAL MEDICAL CENTER,3269 STOCKTON HILL ROAD,35.22012,-114.03576,KINGMAN,AZ,86409,MOHAVE,9287572101,Acute Care Hospitals,Government - Hospital District or Authority,Yes
141,030061,BANNER BOSWELL MEDICAL CENTER,10401 WEST THUNDERBIRD BOULEVARD,33.60431,-112.28391,SUN CITY,AZ,85351,MARICOPA,6239777211,Acute Care Hospitals,Voluntary non-profit - Other,Yes
142,030062,SUMMIT HEALTHCARE REGIONAL MEDICAL CENTER,2200 SHOW LOW LAKE ROAD,34.20249,-110.01713,SHOW LOW,AZ,85901,NAVAJO,9285374375,Acute Care Hospitals,Proprietary,Yes
143,030064,"UNIVERSITY OF ARIZONA MEDICAL CTR-UNIVERSITY, THE",1501 NORTH CAMPBELL AVENUE,32.24053,-110.94554,TUCSON,AZ,85724,PIMA,5206940111,Acute Care Hospitals,Voluntary non-profit - Private,Yes
144,030065,BANNER DESERT MEDICAL CENTER,1400 SOUTH  DOBSON ROAD,33.39034,-111.87464,MESA,AZ,85202,MARICOPA,4804123000,Acute Care Hospitals,Voluntary non-profit - Private,Yes
145,030067,LA PAZ REGIONAL HOSPITAL,1200 WEST MOHAVE ROAD,34.13666,-114.28217,PARKER,AZ,85344,LA PAZ,9286697300,Acute Care Hospitals,Voluntary non-profit - Private,Yes
146,030068,MT GRAHAM REGIONAL MEDICAL CENTER,1600  SOUTH 20TH AVENUE,32.82265,-109.73465,SAFFORD,AZ,85546,GRAHAM,9283484000,Acute Care Hospitals,Government - Hospital District or Authority,Yes
147,030069,HAVASU REGIONAL MEDICAL CENTER,101 CIVIC CENTER LANE,34.48013,-114.3388,LAKE HAVASU CITY,AZ,86403,MOHAVE,9288558185,Acute Care Hospitals,Proprietary,Yes
148,030071,FORT DEFIANCE INDIAN HOSPITAL,PO BOX 649,35.78836,-109.08319,FORT DEFIANCE,AZ,86504,APACHE,9287298000,Acute Care Hospitals,Government - Federal,Yes
149,030073,TUBA CITY REGIONAL HEALTH CARE CORPORATION,PO BOX 600,36.1264,-111.23773,TUBA CITY,AZ,86045,COCONINO,9282832501,Acute Care Hospitals,Voluntary non-profit - Other,Yes
150,030074,SELLS INDIAN HEALTH SERVICE HOSPITAL,PO BOX 548,31.91646,-111.88915,SELLS,AZ,85634,PIMA,5203837200,Acute Care Hospitals,Government - Federal,Yes
151,030077,SAN CARLOS INDIAN HOSPITAL,223 CIBECUE CIRCLE ROAD,33.35202,-110.45452,SAN CARLOS,AZ,85550,GILA,9284757347,Acute Care Hospitals,Government - Federal,Yes
152,030078,PHOENIX INDIAN MEDICAL CENTER,4212 NORTH 16TH STREET,33.49674,-112.04761,PHOENIX,AZ,85016,MARICOPA,6022631200,Acute Care Hospitals,Government - Federal,Yes
153,030083,PARADISE VALLEY HOSPITAL,3929 EAST BELL ROAD,33.63992,-111.99731,PHOENIX,AZ,85032,MARICOPA,6029235000,Acute Care Hospitals,Proprietary,Yes
154,030084,CHINLE COMPREHENSIVE HEALTH CARE FACILITY,"US HWY 191, HOSPITAL ROAD",36.08058,-109.61672,CHINLE,AZ,86503,APACHE,9286747001,Acute Care Hospitals,Government - Federal,Yes
155,030085,NORTHWEST MEDICAL CENTER,6200 NORTH LA CHOLLA BOULEVARD,32.32087,-111.00978,TUCSON,AZ,85741,PIMA,5207429000,Acute Care Hospitals,Proprietary,Yes
156,030087,SCOTTSDALE HEALTHCARE-SHEA MEDICAL CENTER,9003 EAST SHEA BOULEVARD,33.58022,-111.88515,SCOTTSDALE,AZ,85260,MARICOPA,4803233000,Acute Care Hospitals,Proprietary,Yes
157,030088,BANNER BAYWOOD MEDICAL CENTER,6644 EAST BAYWOOD AVENUE,33.41102,-111.6887,MESA,AZ,85206,MARICOPA,4803212000,Acute Care Hospitals,Voluntary non-profit - Private,Yes
158,030089,BANNER THUNDERBIRD MEDICAL CENTER,5555 WEST THUNDERBIRD ROAD,33.6098,-112.18033,GLENDALE,AZ,85306,MARICOPA,6025885555,Acute Care Hospitals,Government - Hospital District or Authority,Yes
159,030092,JOHN C LINCOLN DEER VALLEY HOSPITAL,19829 NORTH 27TH AVENUE,33.66576,-112.1165,PHOENIX,AZ,85027,MARICOPA,6238795574,Acute Care Hospitals,Voluntary non-profit - Private,Yes
160,030093,BANNER DEL E WEBB MEDICAL CENTER,14502 WEST MEEKER BOULEVARD,33.6595,-112.37326,SUN CITY WEST,AZ,85375,MARICOPA,6232144000,Acute Care Hospitals,Voluntary non-profit - Private,Yes
161,030094,ARROWHEAD HOSPITAL,18701 NORTH 67TH AVENUE,33.65514,-112.20192,GLENDALE,AZ,85308,MARICOPA,6235611000,Acute Care Hospitals,Proprietary,Yes
162,030100,CARONDELET HEART AND VASCULAR INSTITUTE,4888 NORTH STONE AVENUE,32.29386,-110.97022,TUCSON,AZ,85704,PIMA,5206962328,Acute Care Hospitals,Voluntary non-profit - Church,Yes
163,030101,WESTERN ARIZONA REGIONAL MEDICAL CTR,2735 SILVER CREEK ROAD,35.11064,-114.55574,BULLHEAD CITY,AZ,86442,MOHAVE,9287632273,Acute Care Hospitals,Proprietary,Yes
164,030103,MAYO CLINIC HOSPITAL,5777 EAST MAYO BOULEVARD,33.65957,-111.95623,PHOENIX,AZ,85054,MARICOPA,4805156296,Acute Care Hospitals,Voluntary non-profit - Private,Yes
165,030105,BANNER HEART HOSPITAL,6750 EAST BAYWOOD AVENUE,33.4112,-111.68496,MESA,AZ,85206,MARICOPA,4808545050,Acute Care Hospitals,Voluntary non-profit - Private,No
166,030107,ARIZONA SPINE AND JOINT HOSPITAL,4620 EAST BASELINE ROAD,33.37996,-111.73482,MESA,AZ,85206,MARICOPA,4808324770,Acute Care Hospitals,Proprietary,No
167,030108,SURGICAL SPECIALTY HOSPITAL OF ARIZONA,6501 NORTH 19TH AVENUE,33.53212,-112.09882,PHOENIX,AZ,85015,MARICOPA,6027956020,Acute Care Hospitals,Proprietary,No
168,030110,WEST VALLEY HOSPITAL,13677 WEST MCDOWELL ROAD,33.46427,-112.35359,GOODYEAR,AZ,85395,MARICOPA,6238821500,Acute Care Hospitals,Proprietary,Yes
169,030111,"UNIVERSITY OF ARIZONA MEDICAL CTR- SOUTH CAM, THE",2800 EAST AJO WAY,32.17623,-110.9307,TUCSON,AZ,85713,PIMA,5202944471,Acute Care Hospitals,Voluntary non-profit - Private,Yes
170,030112,ARIZONA ORTHOPEDIC SURGICAL HOSPITAL,2905 WEST WARNER ROAD,33.33407,-111.89141,CHANDLER,AZ,85225,MARICOPA,4806039000,Acute Care Hospitals,Proprietary,No
171,030113,WHITERIVER PHS INDIAN HOSPITAL,200 WEST HOSPITAL DRIVE  (PO BOX 860),33.87598,-109.95944,WHITERIVER,AZ,85941,NAVAJO,9283384911,Acute Care Hospitals,Government - Federal,Yes
172,030114,ORO VALLEY HOSPITAL,1551 EAST TANGERINE ROAD,32.42932,-110.94986,ORO VALLEY,AZ,85755,PIMA,5209013500,Acute Care Hospitals,Proprietary,Yes
173,030115,BANNER ESTRELLA MEDICAL CENTER,9201 WEST THOMAS ROAD,33.47833,-112.25699,PHOENIX,AZ,85037,MARICOPA,6233274000,Acute Care Hospitals,Voluntary non-profit - Private,Yes
174,030117,VALLEY VIEW MEDICAL CENTER,5330 SOUTH HIGHWAY 95,35.00207,-114.59685,FORT MOHAVE,AZ,86426,MOHAVE,9287882273,Acute Care Hospitals,Proprietary,Yes
175,030118,YAVAPAI REGIONAL MEDICAL CENTER-EAST,7700 EAST FLORENTINE ROAD,34.59013,-112.3305,PRESCOTT VALLEY,AZ,86314,YAVAPAI,9284428165,Acute Care Hospitals,Voluntary non-profit - Private,Yes
176,030119,MERCY GILBERT MEDICAL CENTER,3555 SOUTH VAL VISTA DRIVE,33.28575,-111.75531,GILBERT,AZ,85296,MARICOPA,4807288327,Acute Care Hospitals,Voluntary non-profit - Church,Yes
177,030120,GILBERT HOSPITAL,5656 SOUTH POWER ROAD,33.3138,-111.68689,GILBERT,AZ,85295,MARICOPA,4802795835,Acute Care Hospitals,Proprietary,Yes
178,030121,"MOUNTAIN VISTA MEDICAL CENTER, LP",1301 SOUTH CRISMON ROAD,33.39126,-111.6114,MESA,AZ,85209,MARICOPA,4803586100,Acute Care Hospitals,Proprietary,Yes
179,030122,BANNER GATEWAY MEDICAL CENTER,1900 NORTH HIGLEY ROAD,33.38414,-111.71966,GILBERT,AZ,85234,MARICOPA,4805432000,Acute Care Hospitals,Voluntary non-profit - Other,Yes
180,030123,SCOTTSDALE HEALTHCARE-THOMPSON PEAK HOSPITAL,7400 EAST THOMPSON PEAK PARKWAY,33.6698,-111.9226,SCOTTSDALE,AZ,85255,MARICOPA,4803247004,Acute Care Hospitals,Proprietary,Yes
181,030126,ARIZONA REGIONAL MEDICAL CENTER,515 NORTH MESA DRIVE,33.42493,-111.82214,MESA,AZ,85201,MARICOPA,4808983333,Acute Care Hospitals,Proprietary,Yes
182,030128,HUALAPAI MOUNTAIN MEDICAL CENTER,3801 SANTA ROSA DRIVE,35.21867,-113.98569,KINGMAN,AZ,86401,MOHAVE,9282635000,Acute Care Hospitals,Proprietary,Yes
183,03012F,PHOENIX VA MEDICAL CENTER,650 E. INDIAN SCHOOL ROAD,33.4956,-112.06802,PHOENIX                       ,AZ,85012,,6022226444,ACUTE CARE - VETERANS ADMINISTRATION,Government Federal,Yes
184,030130,BANNER IRONWOOD MEDICAL CENTER,37000 NORTH GANTZEL ROAD,33.21453,-111.56524,SAN TAN VALLEY,AZ,85140,PINAL,4803944030,Acute Care Hospitals,Voluntary non-profit - Private,Yes
185,030131,OASIS HOSPITAL,750 NORTH 40TH STREET,33.45663,-111.9959,PHOENIX,AZ,85008,MARICOPA,6027977700,Acute Care Hospitals,Voluntary non-profit - Private,Yes
186,03013F,VA S. ARIZONA HEALTHCARE SYSTEM,3601 SOUTH SIXTH AVENUE,32.18111,-110.96829,TUCSON                        ,AZ,85723,,5206291821,ACUTE CARE - VETERANS ADMINISTRATION,Government Federal,Yes
187,03033F,VA NORTHERN ARIZONA HEALTHCARE SYSTEM,500 HIGHWAY 89 NORTH,34.554604,-112.452652,PRESCOTT                      ,AZ,86313,YAVAPAI,9284454860,ACUTE CARE - VETERANS ADMINISTRATION,Government Federal,Yes
188,031300,WICKENBURG COMMUNITY HOSPITAL,520 ROSE LANE,33.97804,-112.73956,WICKENBURG,AZ,85390,MARICOPA,9286845421,Critical Access Hospitals,Voluntary non-profit - Private,Yes
189,031301,BENSON HOSPITAL,450 SOUTH OCOTILLO STREET,31.96412,-110.30715,BENSON,AZ,85602,COCHISE,5205862261,Critical Access Hospitals,Government - Hospital District or Authority,Yes
190,031302,NORTHERN COCHISE COMMUNITY HOSPITAL,901 WEST REX ALLEN DRIVE,32.26528,-109.838,WILLCOX,AZ,85643,COCHISE,5203843541,Critical Access Hospitals,Government - Hospital District or Authority,Yes
191,031303,SOUTHEAST ARIZONA MEDICAL CENTER,2174 WEST OAK AVENUE,31.36415,-109.5945,DOUGLAS,AZ,85607,COCHISE,5203647931,Critical Access Hospitals,Voluntary non-profit - Private,Yes
192,031304,PAGE HOSPITAL,501 NORTH NAVAJO DRIVE,36.91699,-111.46311,PAGE,AZ,86040,COCONINO,6286452424,Critical Access Hospitals,Government - Hospital District or Authority,Yes
193,031305,HOPI HEALTH CARE CENTER,"HIGHWAY 264, MILEPOST 388",35.80725,-110.41771,POLACCA,AZ,86042,NAVAJO,9287376000,Critical Access Hospitals,Government - Federal,Yes
194,031309,SAGE MEMORIAL HOSPITAL,STATE ROUTE 264 SOUTH 191 PO BOX 457,35.70911,-109.53924,GANADO,AZ,86505,APACHE,9287554500,Critical Access Hospitals,Voluntary non-profit - Private,Yes
195,031311,LITTLE COLORADO MEDICAL CENTER,1501 NORTH WILLIAMSON AVENUE,35.03553,-110.69174,WINSLOW,AZ,86047,NAVAJO,9282894691,Critical Access Hospitals,Government - Local,Yes
196,031312,COPPER QUEEN COMMUNITY HOSPITAL,101 COLE AVENUE,31.41758,-109.88315,BISBEE,AZ,85603,COCHISE,5204325383,Critical Access Hospitals,Voluntary non-profit - Private,Yes
197,031313,CARONDELET HOLY CROSS HOSPITAL,1171 WEST TARGET RANGE ROAD,31.33918,-110.96002,NOGALES,AZ,85621,SANTA CRUZ,5202853000,Critical Access Hospitals,Voluntary non-profit - Private,Yes
198,031314,COBRE VALLEY REGIONAL MEDICAL CENTER,5880 SOUTH HOSPITAL DRIVE,33.40648,-110.82737,GLOBE,AZ,85501,GILA,9284253261,Critical Access Hospitals,Voluntary non-profit - Private,Yes
199,031315,WHITE MOUNTAIN REGIONAL MEDICAL CENTER,118 SOUTH MOUNTAIN AVENUE,34.13157,-109.28687,SPRINGERVILLE,AZ,85938,APACHE,9283334368,Critical Access Hospitals,Voluntary non-profit - Private,Yes
200,033302,PHOENIX CHILDREN'S HOSPITAL,1919 EAST THOMAS ROAD,33.4794,-112.04162,PHOENIX,AZ,85016,MARICOPA,6029330400,Childrens,Voluntary non-profit - Private,Yes
201,040001,SILOAM SPRINGS MEMORIAL HOSPITAL,205 EAST JEFFERSON STREET,36.18152,-94.54019,SILOAM SPRINGS,AR,72761,BENTON,4795244141,Acute Care Hospitals,Voluntary non-profit - Private,Yes
202,040002,JOHNSON REGIONAL MEDICAL CENTER,1100 EAST POPLAR STREET,35.46436,-93.44269,CLARKSVILLE,AR,72830,JOHNSON,4797545454,Acute Care Hospitals,Voluntary non-profit - Private,Yes
203,040004,WASHINGTON REGIONAL MED CTR AT NORTH HILLS,3215 N NORTH HILLS BLVD,36.10992,-94.16074,FAYETTEVILLE,AR,72703,WASHINGTON,4794635113,Acute Care Hospitals,Government - Local,Yes
204,040007,ST VINCENT INFIRMARY MEDICAL CENTER,TWO ST VINCENT CIRCLE,34.7502,-92.3382,LITTLE ROCK,AR,72205,PULASKI,5015523000,Acute Care Hospitals,Voluntary non-profit - Church,Yes
205,040010,MERCY MEDICAL CENTER,2710 RIFE MEDICAL LANE,36.30963,-94.18336,ROGERS,AR,72758,BENTON,4793388000,Acute Care Hospitals,Voluntary non-profit - Church,Yes
206,040011,"JOHN ED CHAMBERS MEM HOSP, INC",HIGHWAY 10 AT DETROIT STREET,35.05399,-93.38853,DANVILLE,AR,72833,YELL,4794952241,Acute Care Hospitals,Voluntary non-profit - Other,Yes
207,040014,WHITE COUNTY MEDICAL CENTER,3214 EAST RACE AVENUE,35.25045,-91.69357,SEARCY,AR,72143,WHITE,5012783100,Acute Care Hospitals,Voluntary non-profit - Private,Yes
208,040015,MENA REGIONAL HEALTH SYSTEM,311 NORTH MORROW STREET,34.58905,-94.2225,MENA,AR,71953,POLK,4793946100,Acute Care Hospitals,Government - Local,Yes
209,040016,UAMS MEDICAL CENTER,4301 WEST MARKHAM STREET MAIL SLOT 612,34.7513,-92.32075,LITTLE ROCK,AR,72205,PULASKI,5016865000,Acute Care Hospitals,Government - State,Yes
210,040017,NORTH ARKANSAS REGIONAL MEDICAL CENTER,620 NORTH MAIN STREET,36.23603,-93.10922,HARRISON,AR,72601,BOONE,8704144000,Acute Care Hospitals,Voluntary non-profit - Private,Yes
211,040018,SUMMIT MEDICAL CENTER,EAST MAIN AND SOUTH 20TH STREET,35.43652,-94.33811,VAN BUREN,AR,72956,CRAWFORD,4794714300,Acute Care Hospitals,Proprietary,Yes
212,040019,FORREST CITY MEDICAL CENTER,1601 NEWCASTLE ROAD,35.03931,-90.77192,FORREST CITY,AR,72335,SAINT FRANCIS,8702610000,Acute Care Hospitals,Proprietary,Yes
213,040020,ST BERNARDS MEDICAL CTR,225 E JACKSON,35.83822,-90.70309,JONESBORO,AR,72401,CRAIGHEAD,8709724100,Acute Care Hospitals,Voluntary non-profit - Church,Yes
214,040022,"NW ARKANSAS HOSPITALS, LLC",609 WEST MAPLE AVENUE,36.18086,-94.13699,SPRINGDALE,AR,72764,WASHINGTON,4797515711,Acute Care Hospitals,Proprietary,Yes
215,040026,ST JOSEPHS MERCY HEALTH CENTER INC,300 WERNER STREET,34.46733,-93.06581,HOT SPRINGS,AR,71903,GARLAND,5016221000,Acute Care Hospitals,Voluntary non-profit - Church,Yes
216,040027,BAXTER REGIONAL MEDICAL CENTER,624 HOSPITAL DRIVE,36.34297,-92.39586,MOUNTAIN HOME,AR,72653,BAXTER,8705081000,Acute Care Hospitals,Voluntary non-profit - Private,Yes
217,040029,CONWAY REGIONAL MEDICAL CENTER,2302 COLLEGE AVENUE,35.08484,-92.45784,CONWAY,AR,72034,FAULKNER,5013293831,Acute Care Hospitals,Voluntary non-profit - Private,Yes
218,040036,BAPTIST HEALTH MEDICAL CENTER NORTH LITTLE ROCK,3333 SPRINGHILL DRIVE,34.78404,-92.22305,NORTH LITTLE ROCK,AR,72117,PULASKI,5012023000,Acute Care Hospitals,Voluntary non-profit - Other,Yes
219,040039,ARKANSAS METHODIST MEDICAL CENTER,900 WEST KINGSHIGHWAY,36.05201,-90.49883,PARAGOULD,AR,72450,GREENE,8702397000,Acute Care Hospitals,Voluntary non-profit - Private,Yes
220,040041,ST MARYS REGIONAL MEDICAL CENTER,1808 WEST MAIN STREET,35.28302,-93.1504,RUSSELLVILLE,AR,72801,POPE,4799682841,Acute Care Hospitals,Proprietary,Yes
221,040042,CRITTENDEN MEMORIAL HOSPITAL,200 TYLER,35.14407,-90.18964,WEST MEMPHIS,AR,72301,CRITTENDEN,8707351500,Acute Care Hospitals,Voluntary non-profit - Private,Yes
222,040047,FIVE RIVERS MEDICAL CENTER,2801 MEDICAL CENTER DRIVE,36.29008,-90.99711,POCAHONTAS,AR,72455,RANDOLPH,8708926000,Acute Care Hospitals,Government - Local,Yes
223,040050,OUACHITA COUNTY MEDICAL CENTER,638 CALIFORNIA AVENUE,33.57552,-92.83412,CAMDEN,AR,71701,OUACHITA,8708361000,Acute Care Hospitals,Voluntary non-profit - Private,Yes
224,040051,DREW MEMORIAL HOSPITAL,778 SCOGIN DRIVE,33.61114,-91.81708,MONTICELLO,AR,71655,DREW,8703672411,Acute Care Hospitals,Voluntary non-profit - Other,Yes
225,040055,SPARKS REGIONAL MEDICAL CENTER,1001 TOWSON AVENUE,35.37445,-94.42133,FORT SMITH,AR,72901,SEBASTIAN,5014414000,Acute Care Hospitals,Voluntary non-profit - Private,Yes
226,040062,ST EDWARD MERCY MEDICAL CENTER,7301 ROGERS AVE,35.35525,-94.35251,FORT SMITH,AR,72917,SEBASTIAN,4793146000,Acute Care Hospitals,Voluntary non-profit - Private,Yes
227,040067,MAGNOLIA HOSPITAL,101 HOSPITAL DRIVE,33.2751,-93.23926,MAGNOLIA,AR,71754,COLUMBIA,8702353000,Acute Care Hospitals,Government - Local,Yes
228,040069,GREAT RIVER MEDICAL CENTER,1520 N DIVISION STREET,35.94337,-89.91738,BLYTHEVILLE,AR,72315,MISSISSIPPI,8708387300,Acute Care Hospitals,Voluntary non-profit - Other,Yes
229,040071,JEFFERSON REGIONAL MEDICAL CENTER,1600 WEST 40TH AVENUE,34.18754,-92.01896,PINE BLUFF,AR,71603,JEFFERSON,8705417100,Acute Care Hospitals,Voluntary non-profit - Other,Yes
230,040072,BAPTIST HEALTH MEDICAL CENTER-STUTTGART,1703 NORTH BUERKLE ROAD,34.51708,-91.55965,STUTTGART,AR,72160,ARKANSAS,8706733511,Acute Care Hospitals,Proprietary,Yes
231,040074,NORTH METRO MEDICAL CENTER,1400 BRADEN STREET,34.87369,-92.12451,JACKSONVILLE,AR,72076,PULASKI,5019857000,Acute Care Hospitals,Voluntary non-profit - Private,Yes
232,040076,HOT SPRING COUNTY MEDICAL CENTER,1001 SCHNEIDER DRIVE,34.36004,-92.7857,MALVERN,AR,72104,HOT SPRING,5013374911,Acute Care Hospitals,Voluntary non-profit - Private,Yes
233,040078,NATIONAL PARK MEDICAL CENTER,1910 MALVERN AVENUE,34.48635,-93.0352,HOT SPRINGS,AR,71901,GARLAND,5013211000,Acute Care Hospitals,Proprietary,No
234,040080,HARRIS HOSPITAL,1205 MCLAIN STREET,35.60811,-91.26488,NEWPORT,AR,72112,JACKSON,8705238911,Acute Care Hospitals,Proprietary,Yes
235,040084,SALINE MEMORIAL HOSPITAL,#1 MEDICAL PARK DRIVE,34.57349,-92.58513,BENTON,AR,72015,SALINE,5017766000,Acute Care Hospitals,Voluntary non-profit - Private,Yes
236,040085,HELENA REGIONAL MEDICAL CENTER,1801 MARTIN LUTHER KING DRIVE,34.50994,-90.62737,HELENA,AR,72342,PHILLIPS,8703385800,Acute Care Hospitals,Proprietary,Yes
237,040088,MEDICAL CENTER SOUTH ARKANSAS,700 WEST GROVE STREET,33.21838,-92.67229,EL DORADO,AR,71731,UNION,8708632000,Acute Care Hospitals,Proprietary,Yes
238,040091,MEDICAL PARK HOSPITAL,2001 SOUTH MAIN STREET,33.64911,-93.5871,HOPE,AR,71801,HEMPSTEAD,8707772323,Acute Care Hospitals,Proprietary,Yes
239,04009F,FAYETTEVILLE AR VA MEDICAL CENTER,1100 N. COLLEGE AVENUE,36.07722,-94.15708,FAYETTEVILLE                  ,AR,72703,WASHINGTON,4794445058,ACUTE CARE - VETERANS ADMINISTRATION,Government Federal,Yes
240,04010F,VA CENTRAL AR. VETERANS HEALTHCARE SYSTEM LR,4300 WEST SEVENTH STREET,34.74567,-92.32075,LITTLE ROCK                   ,AR,72205,PULASKI,5012571000,ACUTE CARE - VETERANS ADMINISTRATION,Government Federal,Yes
241,040114,BAPTIST HEALTH MEDICAL CENTER-LITTLE ROCK,"9601 INTERSTATE 630, EXIT 7",34.74755,-92.37821,LITTLE ROCK,AR,72205,PULASKI,5012022000,Acute Care Hospitals,Voluntary non-profit - Private,Yes
242,040118,NEA BAPTIST MEMORIAL HOSPITAL,3024 STADIUM BOULEVARD,35.80888,-90.66924,JONESBORO,AR,72401,CRAIGHEAD,8709727000,Acute Care Hospitals,Voluntary non-profit - Private,Yes
243,040119,WHITE RIVER MEDICAL CENTER,1710 HARRISON STREET,35.76838,-91.63487,BATESVILLE,AR,72503,INDEPENDENCE,8702621200,Acute Care Hospitals,Voluntary non-profit - Private,Yes
244,040132,LEO N LEVI NATIONAL ARTHRITIS HOSPITAL,300 PROSPECT AVE,34.50975,-93.05713,HOT SPRINGS,AR,71901,GARLAND,5016241281,Acute Care Hospitals,Voluntary non-profit - Private,Yes
245,040134,ARKANSAS HEART HOSPITAL,1701 S SHACKLEFORD ROAD,34.7392,-92.39369,LITTLE ROCK,AR,72211,PULASKI,5012197000,Acute Care Hospitals,Proprietary,Yes
246,040137,ST VINCENT MEDICAL CENTER/NORTH,2215 WILDWOOD AVENUE,34.81438,-92.20719,SHERWOOD,AR,72120,PULASKI,5015527100,Acute Care Hospitals,Voluntary non-profit - Private,Yes
247,040147,ARKANSAS SURGICAL HOSPITAL,5201 NORTH SHORE DRIVE,34.80162,-92.34812,NO LITTLE ROCK,AR,72118,PULASKI,5017488000,Acute Care Hospitals,Voluntary non-profit - Private,Yes
248,040152,PHYSICIANS' SPECIALTY HOSPITAL,3873 NORTH PARKVIEW DRIVE,36.12133,-94.13374,FAYETTEVILLE,AR,72703,WASHINGTON,4795717002,Acute Care Hospitals,Proprietary,Yes
249,041300,NORTH LOGAN MERCY HOSPITAL,500 EAST ACADEMY,35.28999,-93.72545,PARIS,AR,72855,LOGAN,4799636101,Critical Access Hospitals,Voluntary non-profit - Private,Yes
250,041302,RIVER VALLEY MEDICAL CENTER,200 NORTH THIRD STREET,35.22078,-93.15706,DARDANELLE,AR,72834,YELL,4792294677,Critical Access Hospitals,Proprietary,Yes
251,041303,MERCY HOSPITAL TURNER MEMORIAL,801 WEST RIVER STREET,35.48605,-93.83316,OZARK,AR,72949,FRANKLIN,4796674138,Critical Access Hospitals,Government - Local,Yes
252,041304,"EUREKA SPRINGS HOSPITAL, LLC",24 NORRIS STREET,36.40042,-93.74422,EUREKA SPRINGS,AR,72632,CARROLL,4792537400,Critical Access Hospitals,Voluntary non-profit - Private,Yes
253,041305,MERCY HOSPITAL SCOTT COUNTY,1341 WEST SIXTH STREET,34.89476,-94.10616,WALDRON,AR,72958,SCOTT,4796374135,Critical Access Hospitals,Voluntary non-profit - Private,Yes
254,041306,COMMUNITY MEDICAL CENTER IZARD COUNTY,103 GRASSE STREET,36.1274,-92.12875,CALICO ROCK,AR,72519,IZARD,8702973726,Critical Access Hospitals,Voluntary non-profit - Private,No
255,041307,CROSSRIDGE COMMUNITY HOSPITAL,310 SOUTH FALLS BOULEVARD,35.21968,-90.78743,WYNNE,AR,72396,CROSS,8702383300,Critical Access Hospitals,Voluntary non-profit - Church,Yes
256,041308,MCGEHEE HOSPITAL,900 SOUTH THIRD STREET,33.61878,-91.39344,MCGEHEE,AR,71654,DESHA,8702225600,Critical Access Hospitals,Voluntary non-profit - Private,Yes
257,041309,LAWRENCE MEMORIAL HOSPITAL,1309 WEST MAIN,36.07475,-90.96817,WALNUT RIDGE,AR,72476,LAWRENCE,8708861200,Critical Access Hospitals,Government - Local,Yes
258,041310,STONE COUNTY MEDICAL CENTER,HIGHWAY 14 EAST,35.90993,-92.10724,MOUNTAIN VIEW,AR,72560,STONE,8702694361,Critical Access Hospitals,Voluntary non-profit - Private,Yes
259,041311,HOWARD MEMORIAL HOSPITAL,130 MEDICAL CIRCLE,33.94975,-93.8799,NASHVILLE,AR,71852,HOWARD,8708454400,Critical Access Hospitals,Government - Local,Yes
260,041312,BAPTIST HEALTH MEDICAL CENTER HEBER SPINGS,1800 BYPASS ROAD,35.50453,-91.99838,HEBER SPRINGS,AR,72543,CLEBURNE,5018873000,Critical Access Hospitals,Voluntary non-profit - Private,Yes
261,041313,OZARK HEALTH,2500 HIGHWAY 65 SOUTH,35.55964,-92.44996,CLINTON,AR,72031,VAN BUREN,5017457004,Critical Access Hospitals,Government - Local,Yes
262,041314,"DEWITT HOSPITAL & NURSING HOME, INC",1641 WHITEHEAD DRIVE,34.27885,-91.33805,DE WITT,AR,72042,ARKANSAS,8709463571,Critical Access Hospitals,Voluntary non-profit - Private,Yes
263,041316,SOUTH MISSISSISSPI COUNTY REGIONAL MEDICAL CENTER,611 WEST LEE AVENUE,35.70006,-89.97579,OSCEOLA,AR,72370,MISSISSIPPI,8705637000,Critical Access Hospitals,Voluntary non-profit - Church,Yes
264,041317,DALLAS COUNTY MEDICAL CENTER,201 CLIFTON STREET,33.81151,-92.42498,FORDYCE,AR,71742,DALLAS,8703526300,Critical Access Hospitals,Government - Local,Yes
265,041318,BOONEVILLE COMMUNITY HOSPITAL,880 WEST MAIN,35.14103,-93.93504,BOONEVILLE,AR,72927,LOGAN,4796752800,Critical Access Hospitals,Government - Local,Yes
266,041319,"DE QUEEN MEDICAL CENTER, INC",1306 WEST COLLIN RAYE DRIVE,34.04752,-94.35255,DE QUEEN,AR,71832,SEVIER,8705844111,Critical Access Hospitals,Voluntary non-profit - Private,Yes
267,041320,LITTLE RIVER MEMORIAL HOSPITAL,451 WEST LOCKE STREET,33.66943,-94.13492,ASHDOWN,AR,71822,LITTLE RIVER,8708985011,Critical Access Hospitals,Voluntary non-profit - Other,Yes
268,041321,BAPTIST HEALTH MEDICSL CENTER-ARKADELPHIA,3050 TWIN RIVERS DRIVE,34.12312,-93.08853,ARKADELPHIA,AR,71923,CLARK,8702452622,Critical Access Hospitals,Voluntary non-profit - Other,Yes
269,041323,ASHLEY COUNTY MEDICAL CENTER,1015 UNITY ROAD,33.13807,-91.93846,CROSSETT,AR,71635,ASHLEY,8703644111,Critical Access Hospitals,Voluntary non-profit - Private,Yes
270,041324,ST VINCENT MORRILTON,#4 HOSPITAL DRIVE,35.16919,-92.72014,MORRILTON,AR,72110,CONWAY,5019772300,Critical Access Hospitals,Voluntary non-profit - Private,Yes
271,041326,DELTA MEMORIAL HOSPITAL,300 EAST PICKENS,33.88349,-91.48676,DUMAS,AR,71639,DESHA,8703824303,Critical Access Hospitals,Voluntary non-profit - Private,Yes
272,041327,BRADLEY COUNTY MEDICAL CENTER,404 SOUTH BRADLEY STREET,33.61053,-92.05869,WARREN,AR,71671,BRADLEY,8702263731,Critical Access Hospitals,Voluntary non-profit - Private,Yes
273,041328,CHICOT MEMORIAL MEDICAL CENTER,2729 SOUTH HIGHWAY 65 & 82,33.30607,-91.29024,LAKE VILLAGE,AR,71653,CHICOT,8702655351,Critical Access Hospitals,Voluntary non-profit - Private,Yes
274,041329,ST JOHN'S HOSPITAL-BERRYVILLE,214 CARTER STREET,36.3585,-93.55157,BERRYVILLE,AR,72616,CARROLL,8704233355,Critical Access Hospitals,Voluntary non-profit - Church,Yes
275,041330,PIGGOTT COMMUNITY HOSPITAL,1206 GORDON DUCKWORTH DRIVE,36.39045,-90.20466,PIGGOTT,AR,72454,CLAY,8705983881,Critical Access Hospitals,Government - Local,Yes
276,041331,OZARKS COMMUNITY HOSPITAL OF GRAVETTE,1101 JACKSON STREET SW,36.40825,-94.46055,GRAVETTE,AR,72736,BENTON,4797875291,Critical Access Hospitals,Proprietary,Yes
277,043300,ARKANSAS CHILDREN'S HOSPITAL,800 MARSHALL STREET SLOT 301,34.74346,-92.29147,LITTLE ROCK,AR,72202,PULASKI,5013641100,Childrens,Voluntary non-profit - Private,Yes
278,050002,ST ROSE HOSPITAL,27200 CALAROGA AVE,37.63307,-122.08933,HAYWARD,CA,94545,ALAMEDA,5107826200,Acute Care Hospitals,Voluntary non-profit - Church,Yes
279,050006,ST JOSEPH HOSPITAL,2700 DOLBEER ST,40.78372,-124.14151,EUREKA,CA,95501,HUMBOLDT,7074458121,Acute Care Hospitals,Voluntary non-profit - Church,Yes
280,050007,PENINSULA MEDICAL CENTER,1501 TROUSDALE DRIVE,37.59286,-122.38268,BURLINGAME,CA,94010,SAN MATEO,6506965270,Acute Care Hospitals,Voluntary non-profit - Private,Yes
281,050008,CALIFORNIA PACIFIC MEDICAL CTR-DAVIES CAMPUS HOSP,45 CASTRO STREET,37.768624,-122.435431,SAN FRANCISCO,CA,94114,SAN FRANCISCO,4156006000,Acute Care Hospitals,Voluntary non-profit - Other,Yes
282,050009,QUEEN OF THE VALLEY MEDICAL CENTER,1000 TRANCAS ST,38.32446,-122.29554,NAPA,CA,94558,NAPA,7072524411,Acute Care Hospitals,Voluntary non-profit - Church,Yes
283,050013,ST HELENA HOSPITAL,10 WOODLAND ROAD,38.54218,-122.4754,SAINT HELENA,CA,94574,NAPA,7079675899,Acute Care Hospitals,Voluntary non-profit - Church,Yes
284,050014,SUTTER AMADOR HOSPITAL,200 MISSION BLVD,38.3509,-120.76649,JACKSON,CA,95642,AMADOR,2092237500,Acute Care Hospitals,Government - Local,Yes
285,050016,ARROYO GRANDE COMMUNITY HOSPITAL,345 S HALCYON RD,35.11374,-120.5905,ARROYO GRANDE,CA,93420,SAN LUIS OBISPO,8054894261,Acute Care Hospitals,Voluntary non-profit - Private,Yes
286,050017,MERCY GENERAL HOSPITAL,4001 J ST,38.57047,-121.45194,SACRAMENTO,CA,95819,SACRAMENTO,9164534545,Acute Care Hospitals,Voluntary non-profit - Church,Yes
287,050018,PACIFIC ALLIANCE MEDICAL CENTER,531 W COLLEGE ST,34.06464,-118.23935,LOS ANGELES,CA,90012,LOS ANGELES,2136248411,Acute Care Hospitals,Proprietary,Yes
288,050022,RIVERSIDE COMMUNITY HOSPITAL,4445 MAGNOLIA AVENUE,33.97621,-117.38164,RIVERSIDE,CA,92501,RIVERSIDE,9517883000,Acute Care Hospitals,Proprietary,Yes
289,050024,PARADISE VALLEY HOSPITAL,2400 EAST FOURTH STREET,32.68602,-117.08239,NATIONAL CITY,CA,91950,SAN DIEGO,6194704321,Acute Care Hospitals,Voluntary non-profit - Church,Yes
290,050025,UNIVERSITY OF CALIFORNIA SAN DIEGO MEDICAL CENTER,200 WEST ARBOR DRIVE,32.75487,-117.16673,SAN DIEGO,CA,92103,SAN DIEGO,6195436222,Acute Care Hospitals,Government - Hospital District or Authority,Yes
291,050026,GROSSMONT HOSPITAL,5555 GROSSMONT CENTER DRIVE BOX 58,32.77981,-117.00954,LA MESA,CA,91942,SAN DIEGO,6194650711,Acute Care Hospitals,Government - Hospital District or Authority,Yes
292,050028,MAD RIVER COMMUNITY HOSPITAL,3800 JANES RD,40.89632,-124.0917,ARCATA,CA,95521,HUMBOLDT,7078223621,Acute Care Hospitals,Proprietary,No
293,050030,OROVILLE HOSPITAL,2767 OLIVE HIGHWAY,39.50452,-121.54211,OROVILLE,CA,95966,BUTTE,5305338500,Acute Care Hospitals,Voluntary non-profit - Private,Yes
294,050036,BAKERSFIELD MEMORIAL HOSPITAL,420 34TH ST BOX 1888,35.39107,-119.00716,BAKERSFIELD,CA,93301,KERN,6613271792,Acute Care Hospitals,Voluntary non-profit - Private,Yes
295,050038,SANTA CLARA VALLEY MEDICAL CENTER,751 SOUTH BASCOM AVENUE,37.31406,-121.93492,SAN JOSE,CA,95128,SANTA CLARA,4088855000,Acute Care Hospitals,Government - Local,Yes
296,050039,ENLOE MEDICAL CENTER,1531 ESPLANADE,39.74192,-121.8498,CHICO,CA,95926,BUTTE,5303327300,Acute Care Hospitals,Voluntary non-profit - Private,Yes
297,050040,LAC/OLIVE VIEW-UCLA MEDICAL CENTER,14445 OLIVE VIEW DRIVE,34.32416,-118.44835,SYLMAR,CA,91342,LOS ANGELES,8183641555,Acute Care Hospitals,Voluntary non-profit - Other,Yes
298,050042,ST ELIZABETH COMMUNITY HOSPITAL,2550 SISTER MARY COLUMBA DRIVE,40.14856,-122.21862,RED BLUFF,CA,96080,TEHAMA,5305298012,Acute Care Hospitals,Voluntary non-profit - Church,Yes
299,050043,ALTA BATES SUMMIT MEDICAL CENTER,350 HAWTHORNE AVENUE,37.81978,-122.26406,OAKLAND,CA,94609,ALAMEDA,5106554000,Acute Care Hospitals,Voluntary non-profit - Other,Yes
300,050045,EL CENTRO REGIONAL MEDICAL CENTER,1415 ROSS AVENUE,32.78043,-115.56928,EL CENTRO,CA,92243,IMPERIAL,7603397100,Acute Care Hospitals,Government - Local,Yes
301,050046,OJAI VALLEY COMMUNITY HOSPITAL,1306 MARICOPA HWY,34.44293,-119.26471,OJAI,CA,93023,VENTURA,8056402280,Acute Care Hospitals,Proprietary,Yes
302,050047,CALIFORNIA PACIFIC MEDICAL CTR-PACIFIC CAMPUS HOSP,2333 BUCHANAN STREET,37.79105,-122.43153,SAN FRANCISCO,CA,94115,SAN FRANCISCO,4156006000,Acute Care Hospitals,Voluntary non-profit - Private,Yes
303,050054,SAN GORGONIO MEMORIAL HOSPITAL,600 NORTH HIGHLAND SPRINGS AVENUE,33.93242,-116.94587,BANNING,CA,92220,RIVERSIDE,9517692101,Acute Care Hospitals,Government - Hospital District or Authority,Yes
304,050055,CALIFORNIA PACIFIC MEDICAL CTR - ST. LUKE'S CAMPUS,3555 CESAR CHAVEZ STREET,37.74804,-122.42136,SAN FRANCISCO,CA,94110,SAN FRANCISCO,4156416562,Acute Care Hospitals,Voluntary non-profit - Church,Yes
305,050056,ANTELOPE VALLEY HOSPITAL MED CENTER,1600 W AVE J,34.68782,-118.15798,LANCASTER,CA,93534,LOS ANGELES,6619495501,Acute Care Hospitals,Government - Hospital District or Authority,Yes
306,050057,KAWEAH DELTA MEDICAL CENTER,400 W MINERAL KING AVE,36.3274,-119.29484,VISALIA,CA,93291,TULARE,5596242000,Acute Care Hospitals,Government - Hospital District or Authority,Yes
307,050058,GLENDALE MEM HOSPITAL & HLTH CENTER,1420 S CENTRAL AVE,34.12794,-118.2578,GLENDALE,CA,91204,LOS ANGELES,8185021900,Acute Care Hospitals,Voluntary non-profit - Private,Yes
308,050060,COMMUNITY REGIONAL MEDICAL CENTER,2823 FRESNO STREET,36.74266,-119.78299,FRESNO,CA,93715,FRESNO,5594596000,Acute Care Hospitals,Voluntary non-profit - Private,Yes
309,050063,HOLLYWOOD PRESBYTERIAN MEDICAL CENTER,1300 N VERMONT AVE,34.09673,-118.29067,LOS ANGELES,CA,90028,LOS ANGELES,2134133000,Acute Care Hospitals,Proprietary,Yes
310,050067,OAK VALLEY DISTRICT HOSPITAL,350 S OAK AVE,37.75668,-120.8608,OAKDALE,CA,95361,STANISLAUS,2098473011,Acute Care Hospitals,Government - Hospital District or Authority,Yes
311,050069,ST JOSEPH HOSPITAL,1100 WEST STEWART DR,33.78239,-117.86542,ORANGE,CA,92868,ORANGE,7146339111,Acute Care Hospitals,Voluntary non-profit - Church,Yes
312,050070,KAISER FOUNDATION HOSPITAL - SOUTH SAN FRANCISCO,1200 EL CAMINO REAL,37.65891,-122.4395,SOUTH SAN FRANCISCO,CA,94080,SAN MATEO,6507423200,Acute Care Hospitals,Voluntary non-profit - Private,Yes
313,050071,KAISER FOUNDATION HOSPITAL-SANTA CLARA,700 LAWRENCE EXPRESSWAY,37.33552,-121.99828,SANTA CLARA,CA,95051,SANTA CLARA,4082366400,Acute Care Hospitals,Government - Federal,Yes
314,050072,KAISER FOUNDATION HOSPITAL - WALNUT CREEK,1425 S MAIN ST,37.89146,-122.05858,WALNUT CREEK,CA,94596,CONTRA COSTA,9252954000,Acute Care Hospitals,Voluntary non-profit - Other,Yes
315,050073,KAISER FOUNDATION HOSPITAL AND REHAB CENTER,975 SERENO DR,38.12789,-122.24845,VALLEJO,CA,94589,SOLANO,7076511000,Acute Care Hospitals,Voluntary non-profit - Other,Yes
316,050075,KAISER FOUNDATION HOSPITAL OAKLAND/RICHMOND,280 W MAC ARTHUR BLVD,37.82416,-122.2578,OAKLAND,CA,94611,ALAMEDA,5107521000,Acute Care Hospitals,Voluntary non-profit - Other,Yes
317,050076,KAISER FOUNDATION HOSPITAL - SAN FRANCISCO,2425 GEARY BLVD,37.7828,-122.44293,SAN FRANCISCO,CA,94115,SAN FRANCISCO,4158332646,Acute Care Hospitals,Government - Hospital District or Authority,Yes
318,050077,SCRIPPS MERCY HOSPITAL,4077 5TH AVE,32.75344,-117.16047,SAN DIEGO,CA,92103,SAN DIEGO,6192948111,Acute Care Hospitals,Voluntary non-profit - Private,No
319,050078,PROVIDENCE LITTLE CO OF MARY MED CTR SAN PEDRO,1300 W 7TH ST,33.73815,-118.30534,SAN PEDRO,CA,90732,LOS ANGELES,3108323311,Acute Care Hospitals,Voluntary non-profit - Private,Yes
320,050079,DOCTORS MEDICAL CENTER-SAN PABLO,2000 VALE RD,37.95351,-122.33669,SAN PABLO,CA,94806,CONTRA COSTA,5109705000,Acute Care Hospitals,Government - Hospital District or Authority,Yes
321,050082,ST JOHNS REGIONAL MEDICAL CENTER,1600 N ROSE AVE,34.21683,-119.15603,OXNARD,CA,93030,VENTURA,8059882500,Acute Care Hospitals,Voluntary non-profit - Church,Yes
322,050084,ST JOSEPHS MED CENTER OF STOCKTON,1800 N CALIFORNIA ST,37.96976,-121.28795,STOCKTON,CA,95204,SAN JOAQUIN,2099432000,Acute Care Hospitals,Voluntary non-profit - Church,Yes
323,050089,COMMUNITY HOSPITAL OF SAN BERNARDINO,1805 MEDICAL CENTER DRIVE,34.13139,-117.32256,SAN BERNARDINO,CA,92411,SAN BERNARDINO,9098876333,Acute Care Hospitals,Voluntary non-profit - Private,Yes
324,050090,SONOMA VALLEY HOSPITAL,347 ANDRIEUX ST,38.28848,-122.46526,SONOMA,CA,95476,SONOMA,7079355000,Acute Care Hospitals,Government - Hospital District or Authority,Yes
325,050091,COMMUNITY AND MISSION  HOSPITAL OF HUNTINGTON PARK,2623 E SLAUSON AVE,33.98952,-118.22453,HUNTINGTON PARK,CA,90255,LOS ANGELES,3235831931,Acute Care Hospitals,Voluntary non-profit - Private,Yes
326,050093,SAINT AGNES MEDICAL CENTER,1303 E HERNDON AVE,36.83708,-119.76548,FRESNO,CA,93710,FRESNO,5594503000,Acute Care Hospitals,Voluntary non-profit - Church,Yes
327,050096,"DOCTORS HOSPITAL OF WEST COVINA, INC",725 S ORANGE AVE,34.07138,-117.94448,WEST COVINA,CA,91790,LOS ANGELES,6263388481,Acute Care Hospitals,Proprietary,No
328,050099,SAN ANTONIO COMMUNITY HOSPITAL,999 SAN BERNARDINO RD,34.10258,-117.63732,UPLAND,CA,91786,SAN BERNARDINO,7149852811,Acute Care Hospitals,Voluntary non-profit - Other,Yes
329,050100,SHARP MEMORIAL HOSPITAL,7901 FROST ST,32.8,-117.15422,SAN DIEGO,CA,92123,SAN DIEGO,8589393400,Acute Care Hospitals,Voluntary non-profit - Other,Yes
330,050101,SUTTER SOLANO MEDICAL CENTER,300 HOSPITAL DR,38.13104,-122.23664,VALLEJO,CA,94589,SOLANO,7075545280,Acute Care Hospitals,Voluntary non-profit - Other,Yes
331,050102,PARKVIEW COMMUNITY HOSPITAL MEDICAL CENTER,3865 JACKSON STREET,33.92679,-117.43946,RIVERSIDE,CA,92503,RIVERSIDE,9516882211,Acute Care Hospitals,Voluntary non-profit - Private,Yes
332,050103,WHITE MEMORIAL MEDICAL CENTER,1720 E CESAR AVENUE,34.05072,-118.21655,LOS ANGELES,CA,90033,LOS ANGELES,3232685000,Acute Care Hospitals,Voluntary non-profit - Church,Yes
333,050104,SAINT FRANCIS MEDICAL CENTER,3630 EAST IMPERIAL HIGHWAY,33.93031,-118.20255,LYNWOOD,CA,90262,LOS ANGELES,3109008900,Acute Care Hospitals,Voluntary non-profit - Church,Yes
334,050107,MARIAN REGIONAL MEDICAL CENTER,1400 E CHURCH ST,34.95165,-120.41321,SANTA MARIA,CA,93454,SANTA BARBARA,8057393000,Acute Care Hospitals,Voluntary non-profit - Church,Yes
335,050108,SUTTER GENERAL HOSPITAL,2801 L STREET,38.57194,-121.46954,SACRAMENTO,CA,95816,SACRAMENTO,9167338999,Acute Care Hospitals,Voluntary non-profit - Other,Yes
336,050110,LOMPOC VALLEY MEDICAL CENTER,1515 E OCEAN AVENUE,34.6396,-120.43919,LOMPOC,CA,93436,SANTA BARBARA,8057373300,Acute Care Hospitals,Government - Hospital District or Authority,Yes
337,050111,TEMPLE COMMUNITY HOSPITAL,235 N HOOVER ST,34.07531,-118.28367,LOS ANGELES,CA,90004,LOS ANGELES,2133827252,Acute Care Hospitals,Proprietary,No
338,050112,SANTA MONICA - UCLA MED CTR & ORTHOPAEDIC HOSPITAL,1250 16TH STREET,34.02754,-118.48609,SANTA MONICA,CA,90404,LOS ANGELES,3103194000,Acute Care Hospitals,Government - State,Yes
339,050113,SAN MATEO MEDICAL CENTER,222 W 39TH AVE,37.53046,-122.29854,SAN MATEO,CA,94403,SAN MATEO,6505732222,Acute Care Hospitals,Government - Local,Yes
340,050115,PALOMAR MEDICAL CENTER,555 E VALLEY PARKWAY,33.12572,-117.07627,ESCONDIDO,CA,92025,SAN DIEGO,7607393000,Acute Care Hospitals,Government - Hospital District or Authority,Yes
341,050116,NORTHRIDGE HOSPITAL MEDICAL CENTER,18300 ROSCOE BLVD,34.22077,-118.53204,NORTHRIDGE,CA,91325,LOS ANGELES,8188858500,Acute Care Hospitals,Voluntary non-profit - Other,Yes
342,050118,DOCTORS HOSPITAL OF MANTECA,1205 E NORTH ST,37.80107,-121.19749,MANTECA,CA,95336,SAN JOAQUIN,2098233111,Acute Care Hospitals,Proprietary,Yes
343,050121,ADVENTIST MEDICAL CENTER,115 MALL DRIVE,36.32556,-119.66845,HANFORD,CA,93230,KINGS,5595829000,Acute Care Hospitals,Voluntary non-profit - Church,Yes
344,050122,DAMERON HOSPITAL,525 WEST ACACIA STREET,37.96142,-121.30068,STOCKTON,CA,95203,SAN JOAQUIN,2099445550,Acute Care Hospitals,Voluntary non-profit - Other,Yes
345,050124,VERDUGO HILLS HOSPITAL,1812 VERDUGO BLVD,34.20451,-118.21657,GLENDALE,CA,91209,LOS ANGELES,8187907100,Acute Care Hospitals,Voluntary non-profit - Other,Yes
346,050125,REGIONAL MEDICAL CENTER OF SAN JOSE,225 N JACKSON AVENUE,37.36307,-121.84929,SAN JOSE,CA,95116,SANTA CLARA,4082595000,Acute Care Hospitals,Voluntary non-profit - Church,Yes
347,050126,VALLEY PRESBYTERIAN HOSPITAL,15107 VANOWEN ST,34.19476,-118.46279,VAN NUYS,CA,91406,LOS ANGELES,8189023906,Acute Care Hospitals,Voluntary non-profit - Other,Yes
348,050127,WOODLAND MEMORIAL HOSPITAL,1325 COTTONWOOD STREET,38.66413,-121.79243,WOODLAND,CA,95695,YOLO,5306623961,Acute Care Hospitals,Voluntary non-profit - Other,Yes
349,050128,TRI-CITY MEDICAL CENTER,4002 VISTA WAY,33.18425,-117.29165,OCEANSIDE,CA,92056,SAN DIEGO,7607248411,Acute Care Hospitals,Government - Hospital District or Authority,Yes
350,050129,ST BERNARDINE MEDICAL CENTER,2101 N WATERMAN AVE,34.13459,-117.27603,SAN BERNARDINO,CA,92404,SAN BERNARDINO,9098814440,Acute Care Hospitals,Voluntary non-profit - Church,Yes
351,050131,NOVATO COMMUNITY HOSPITAL,180 ROWLAND WAY,38.09896,-122.56022,NOVATO,CA,94945,MARIN,4152091300,Acute Care Hospitals,Voluntary non-profit - Other,Yes
352,050132,SAN GABRIEL VALLEY MEDICAL CENTER,438 W LAS TUNAS DRIVE,34.10122,-118.10627,SAN GABRIEL,CA,91776,LOS ANGELES,6262895454,Acute Care Hospitals,Voluntary non-profit - Other,Yes
353,050133,RIDEOUT MEMORIAL HOSPITAL,726 4TH ST,39.13875,-121.59445,MARYSVILLE,CA,95901,YUBA,5307494300,Acute Care Hospitals,Voluntary non-profit - Other,Yes
354,050135,HOLLYWOOD COMMUNITY HOSPITAL OF HOLLYWOOD,6245 DE LONGPRE AVE,34.09618,-118.32508,HOLLYWOOD,CA,90028,LOS ANGELES,3234622271,Acute Care Hospitals,Voluntary non-profit - Other,Yes
355,050136,PETALUMA VALLEY HOSPITAL,400 N MCDOWELL BLVD,38.25437,-122.6322,PETALUMA,CA,94954,SONOMA,7077781111,Acute Care Hospitals,Voluntary non-profit - Other,Yes
356,050137,KAISER FOUNDATION HOSPITAL - PANORAMA CITY,13652 CANTARA ST,34.21902,-118.42997,PANORAMA CITY,CA,91402,LOS ANGELES,8183753333,Acute Care Hospitals,Voluntary non-profit - Private,Yes
357,050138,KAISER FOUNDATION HOSPITAL - LOS ANGELES,4867 SUNSET BLVD,34.09853,-118.29537,LOS ANGELES,CA,90027,LOS ANGELES,3237834011,Acute Care Hospitals,Voluntary non-profit - Other,Yes
358,050139,KAISER FOUNDATION HOSPITAL - DOWNEY,9333 IMPERIAL HIGHWAY,33.91927,-118.1298,DOWNEY,CA,90242,LOS ANGELES,5624616007,Acute Care Hospitals,Voluntary non-profit - Other,Yes
359,050140,KAISER FOUNDATION HOSPITAL FONTANA,9961 SIERRA AVE,34.072271,-117.433458,FONTANA,CA,92335,SAN BERNARDINO,9094275500,Acute Care Hospitals,Voluntary non-profit - Private,Yes
360,050145,COMMUNITY HOSPITAL OF THE MONTEREY PENINSULA,23625 W R HOLMAN HIGHWAY,36.57897,-121.91361,MONTEREY,CA,93940,MONTEREY,8316245311,Acute Care Hospitals,Voluntary non-profit - Private,Yes
361,050149,CALIFORNIA HOSPITAL MEDICAL CENTER LA,1401 SOUTH GRAND AVENUE,34.03711,-118.2659,LOS ANGELES,CA,90015,LOS ANGELES,2137482411,Acute Care Hospitals,Voluntary non-profit - Other,Yes
362,050150,SIERRA NEVADA MEMORIAL HOSPITAL,155 GLASSON WAY,39.22815,-121.04708,GRASS VALLEY,CA,95945,NEVADA,5302746000,Acute Care Hospitals,Voluntary non-profit - Other,Yes
363,050152,SAINT FRANCIS MEMORIAL HOSPITAL,900 HYDE ST,37.78979,-122.41715,SAN FRANCISCO,CA,94109,SAN FRANCISCO,4153536000,Acute Care Hospitals,Voluntary non-profit - Private,Yes
364,050153,O'CONNOR HOSPITAL,2105 FOREST AVENUE,37.32793,-121.93703,SAN JOSE,CA,95128,SANTA CLARA,4089472500,Acute Care Hospitals,Voluntary non-profit - Church,Yes
365,050158,ENCINO HOSPITAL MEDICAL CENTER,16237 VENTURA BLVD,34.15702,-118.48702,ENCINO,CA,91436,LOS ANGELES,8189955000,Acute Care Hospitals,Proprietary,Yes
366,050159,VENTURA COUNTY MEDICAL CENTER,3291 LOMA VISTA RD,34.27624,-119.25183,VENTURA,CA,93003,VENTURA,8056526075,Acute Care Hospitals,Government - Local,Yes
367,050167,SAN JOAQUIN GENERAL HOSPITAL,500 W HOSPITAL ROAD,37.88646,-121.28209,FRENCH CAMP,CA,95231,SAN JOAQUIN,2094686000,Acute Care Hospitals,Government - Local,Yes
368,050168,ST JUDE MEDICAL CENTER,101 E VALENCIA MESA DRIVE,33.89414,-117.92695,FULLERTON,CA,92835,ORANGE,7149923000,Acute Care Hospitals,Voluntary non-profit - Church,Yes
369,050169,PRESBYTERIAN INTERCOMMUNITY HOSPITAL,12401 E WASHINGTON BLVD,33.96862,-118.04819,WHITTIER,CA,90602,LOS ANGELES,5266980811,Acute Care Hospitals,Voluntary non-profit - Private,Yes
370,050174,SANTA ROSA MEMORIAL HOSPITAL,1165 MONTGOMERY DR,38.44348,-122.70161,SANTA ROSA,CA,95405,SONOMA,7075255300,Acute Care Hospitals,Voluntary non-profit - Private,Yes
371,050179,EMANUEL MEDICAL CENTER INC,825 DELBON AVE,37.51163,-120.8381,TURLOCK,CA,95382,STANISLAUS,2096674200,Acute Care Hospitals,Voluntary non-profit - Church,Yes
372,050180,JOHN MUIR MEDICAL CENTER - WALNUT CREEK CAMPUS,1601 YGNACIO VALLEY RD,37.91366,-122.04096,WALNUT CREEK,CA,94598,CONTRA COSTA,9259393000,Acute Care Hospitals,Voluntary non-profit - Private,Yes
373,050189,GEORGE L MEE MEMORIAL HOSPITAL,300 CANAL STREET,36.20644,-121.13342,KING CITY,CA,93930,MONTEREY,8313856000,Acute Care Hospitals,Voluntary non-profit - Other,Yes
374,050191,ST MARY MEDICAL CENTER,1050 LINDEN AVE,33.78028,-118.18646,LONG BEACH,CA,90813,LOS ANGELES,5624919000,Acute Care Hospitals,Voluntary non-profit - Church,Yes
375,050192,ADVENTIST MEDICAL CENTER - REEDLEY,372 W CYPRESS AVE,36.60801,-119.4514,REEDLEY,CA,93654,FRESNO,5596388155,Acute Care Hospitals,Government - Hospital District or Authority,Yes
376,050194,WATSONVILLE COMMUNITY HOSPITAL,75 NIELSON STREET,36.92634,-121.79367,WATSONVILLE,CA,95076,SANTA CRUZ,8317244741,Acute Care Hospitals,Proprietary,Yes
377,050195,WASHINGTON HOSPITAL,2000 MOWRY AVE,37.557,-121.98048,FREMONT,CA,94538,ALAMEDA,5107971111,Acute Care Hospitals,Government - Hospital District or Authority,Yes
378,050196,CENTRAL VALLEY GENERAL HOSPITAL,1025 N DOUTY ST,36.33595,-119.64605,HANFORD,CA,93230,KINGS,5595832100,Acute Care Hospitals,Voluntary non-profit - Church,Yes
379,050197,SEQUOIA HOSPITAL,170 ALAMEDA DE LAS PULGAS,37.48034,-122.25497,REDWOOD CITY,CA,94062,SAN MATEO,6503675551,Acute Care Hospitals,Voluntary non-profit - Private,Yes
380,050204,PALMDALE REGIONAL MEDICAL CENTER,38600 MEDICAL CENTER DRIVE,34.58281,-118.1451,PALMDALE,CA,93552,LOS ANGELES,6613825000,Acute Care Hospitals,Proprietary,Yes
381,050205,EAST VALLEY HOSPITAL MEDICAL CENTER,150 WEST ROUTE 66,34.12768,-117.86569,GLENDORA,CA,91740,LOS ANGELES,6263350231,Acute Care Hospitals,Voluntary non-profit - Private,Yes
382,050211,ALAMEDA HOSPITAL,2070 CLINTON AVE,37.76337,-122.25389,ALAMEDA,CA,94501,ALAMEDA,5105223700,Acute Care Hospitals,Voluntary non-profit - Private,Yes
383,050219,COAST PLAZA HOSPITAL,13100 STUDEBAKER RD,33.91213,-118.09845,NORWALK,CA,90650,LOS ANGELES,5628683751,Acute Care Hospitals,Voluntary non-profit-Private,Yes
384,050222,SHARP CHULA VISTA MEDICAL CENTER,751 MEDICAL CENTER COURT,32.61848,-117.02366,CHULA VISTA,CA,91911,SAN DIEGO,6195025800,Acute Care Hospitals,Proprietary,Yes
385,050224,HOAG MEMORIAL HOSPITAL PRESBYTERIAN,ONE HOAG DRIVE,33.62499,-117.92924,NEWPORT BEACH,CA,92663,ORANGE,9496458600,Acute Care Hospitals,Voluntary non-profit - Other,Yes
386,050225,FEATHER RIVER HOSPITAL,5974 PENTZ ROAD,39.75748,-121.57183,PARADISE,CA,95969,BUTTE,5308779361,Acute Care Hospitals,Voluntary non-profit - Church,Yes
387,050226,AHMC ANAHEIM REGIONAL MEDICAL CENTER,1111 W LA PALMA AVENUE,33.84741,-117.93377,ANAHEIM,CA,92801,ORANGE,7147741450,Acute Care Hospitals,Voluntary non-profit - Private,Yes
388,050228,SAN FRANCISCO GENERAL HOSPITAL,1001 POTRERO AVENUE,37.75512,-122.40532,SAN FRANCISCO,CA,94110,SAN FRANCISCO,4152068000,Acute Care Hospitals,Government - Local,Yes
389,050230,GARDEN GROVE HOSPITAL & MEDICAL CENTER,12601 GARDEN GROVE BLVD,33.77462,-117.91303,GARDEN GROVE,CA,92843,ORANGE,7145375160,Acute Care Hospitals,Proprietary,Yes
390,050231,POMONA VALLEY HOSPITAL MEDICAL CENTER,1798 N GAREY AVE,34.07637,-117.75105,POMONA,CA,91767,LOS ANGELES,9098659500,Acute Care Hospitals,Voluntary non-profit - Other,Yes
391,050232,FRENCH HOSPITAL MEDICAL CENTER,1911 JOHNSON AVE,35.27745,-120.65023,SAN LUIS OBISPO,CA,93401,SAN LUIS OBISPO,8055435353,Acute Care Hospitals,Voluntary non-profit - Other,Yes
392,050234,SHARP CORONADO HOSPITAL AND HLTHCR CTR,250 PROSPECT PLACE,32.69436,-117.16827,CORONADO,CA,92118,SAN DIEGO,6194356251,Acute Care Hospitals,Voluntary non-profit - Other,Yes
393,050235,PROVIDENCE SAINT JOSEPH MEDICAL CTR,501 SOUTH BUENA VISTA,34.15737,-118.32891,BURBANK,CA,91505,LOS ANGELES,8188435111,Acute Care Hospitals,Voluntary non-profit - Church,Yes
394,050236,SIMI VALLEY HOSPITAL & HEALTH CARE SERVICES,2975 N SYCAMORE DR,34.28954,-118.74474,SIMI VALLEY,CA,93065,VENTURA,8059556000,Acute Care Hospitals,Voluntary non-profit - Church,Yes
395,050238,METHODIST HOSPITAL OF SOUTHERN CA,300 W HUNTINGTON DR,34.13425,-118.04268,ARCADIA,CA,91006,LOS ANGELES,6264454441,Acute Care Hospitals,Voluntary non-profit - Church,Yes
396,050239,GLENDALE ADVENTIST MEDICAL CENTER,1509 E WILSON TERRACE,34.14763,-118.23089,GLENDALE,CA,91206,LOS ANGELES,8184098202,Acute Care Hospitals,Voluntary non-profit - Church,Yes
397,050242,DOMINICAN HOSPITAL,1555 SOQUEL DRIVE,36.9899,-121.98348,SANTA CRUZ,CA,95065,SANTA CRUZ,8314627700,Acute Care Hospitals,Voluntary non-profit - Church,Yes
398,050243,DESERT REGIONAL MEDICAL CENTER,1150 NORTH INDIAN CANYON DRIVE,33.83814,-116.54486,PALM SPRINGS,CA,92262,RIVERSIDE,7603236511,Acute Care Hospitals,Proprietary,Yes
399,050245,ARROWHEAD REGIONAL MEDICAL CENTER,400 NORTH PEPPER AVENUE,34.07194,-117.35283,COLTON,CA,92324,SAN BERNARDINO,9095801000,Acute Care Hospitals,Government - Local,Yes
400,050248,NATIVIDAD MEDICAL CENTER,1441 CONSTITUTION BOULEVARD,36.69725,-121.62885,SALINAS,CA,93906,MONTEREY,8317554195,Acute Care Hospitals,Government - Hospital District or Authority,Yes
401,050254,MARSHALL MEDICAL CENTER (1-RH),1100 MARSHALL WAY,38.72455,-120.79115,PLACERVILLE,CA,95667,EL DORADO,5306221441,Acute Care Hospitals,Voluntary non-profit - Other,Yes
402,050257,GOOD SAMARITAN HOSPITAL,901 OLIVE DRIVE,35.41155,-119.03942,BAKERSFIELD,CA,93308,KERN,6613994461,Acute Care Hospitals,Proprietary,No
403,05025F,FRESNO VA MEDICAL CENTER (VA CENTRAL CALIFORNIA HEALTHCARE SYSTEM),2615 E. CLINTON AVENUE,36.77227,-119.78011,FRESNO                        ,CA,93703,,5592285338,ACUTE CARE - VETERANS ADMINISTRATION,Government Federal,Yes
404,050261,SIERRA VIEW DISTRICT HOSPITAL,465 W PUTNAM AVE,36.06872,-119.02682,PORTERVILLE,CA,93257,TULARE,5597841110,Acute Care Hospitals,Government - Hospital District or Authority,Yes
405,050262,RONALD REAGAN UCLA MEDICAL CENTER,757 WESTWOOD PLAZA,34.06617,-118.44562,LOS ANGELES,CA,90095,LOS ANGELES,3108256301,Acute Care Hospitals,Government - State,Yes
406,050272,REDLANDS COMMUNITY HOSPITAL,350 TERRACINA BLVD,34.03702,-117.20559,REDLANDS,CA,92373,SAN BERNARDINO,9093355500,Acute Care Hospitals,Government - Federal,Yes
407,050276,CONTRA COSTA REGIONAL MEDICAL CENTER,2500 ALHAMBRA AVE,38.00635,-122.13093,MARTINEZ,CA,94553,CONTRA COSTA,9253705000,Acute Care Hospitals,Government - Local,Yes
408,050277,PACIFIC HOSPITAL OF LONG BEACH,2776 PACIFIC AVE,33.8073,-118.19317,LONG BEACH,CA,90806,LOS ANGELES,5625951911,Acute Care Hospitals,Voluntary non-profit - Private,Yes
409,050278,PROVIDENCE HOLY CROSS MEDICAL CENTER,15031 RINALDI ST,34.28011,-118.46075,MISSION HILLS,CA,91346,LOS ANGELES,8183658051,Acute Care Hospitals,Voluntary non-profit - Church,Yes
410,050279,HI-DESERT MEDICAL CENTER,6601 WHITE FEATHER ROAD,34.13239,-116.27509,JOSHUA TREE,CA,92252,SAN BERNARDINO,7603666285,Acute Care Hospitals,Government - Hospital District or Authority,Yes
411,05027F,VA LONG BEACH HEALTHCARE SYSTEM,5901 E. SEVENTH STREET,33.77538,-118.12,LONG BEACH                    ,CA,90822,LOS ANGELES,5628268000,ACUTE CARE - VETERANS ADMINISTRATION,Government Federal,Yes
412,050280,MERCY MEDICAL CENTER REDDING,"2175 ROSALINE AVE, CLAIRMONT HGTS",40.57194,-122.39601,REDDING,CA,96001,SHASTA,5302256102,Acute Care Hospitals,Voluntary non-profit - Church,Yes
413,050281,ALHAMBRA HOSPITAL MEDICAL CENTER,100 S RAYMOND AVE,34.09052,-118.1441,ALHAMBRA,CA,91801,LOS ANGELES,6265701606,Acute Care Hospitals,Proprietary,Yes
414,050283,VALLEYCARE MEDICAL CENTER,5555 WEST LAS POSITAS BOULEVARD,37.69401,-121.88068,PLEASANTON,CA,94588,ALAMEDA,9254477000,Acute Care Hospitals,Voluntary non-profit - Private,Yes
415,050289,SETON MEDICAL CENTER,1900 SULLIVAN AVENUE,37.6793,-122.47439,DALY CITY,CA,94015,SAN MATEO,6509924000,Acute Care Hospitals,Voluntary non-profit - Church,Yes
416,050290,SAINT JOHN'S HEALTH CENTER,2121 SANTA MONICA BLVD,34.0298,-118.47902,SANTA MONICA,CA,90404,LOS ANGELES,3108295511,Acute Care Hospitals,Voluntary non-profit - Church,Yes
417,050291,SUTTER MEDICAL CENTER OF SANTA ROSA,3325 CHANATE RD,38.46966,-122.70765,SANTA ROSA,CA,95404,SONOMA,7075764000,Acute Care Hospitals,Government - Local,Yes
418,050292,RIVERSIDE COUNTY REGIONAL MEDICAL CENTER,26520 CACTUS AVENUE,33.91011,-117.19538,MORENO VALLEY,CA,92555,RIVERSIDE,9514864000,Acute Care Hospitals,Proprietary,Yes
419,050295,MERCY HOSPITAL,2215 TRUXTUN AVENUE,35.3733,-119.0276,BAKERSFIELD,CA,93301,KERN,6616325000,Acute Care Hospitals,Voluntary non-profit - Church,Yes
420,050296,HAZEL HAWKINS MEMORIAL HOSPITAL,911 SUNSET DRIVE,36.83509,-121.38624,HOLLISTER,CA,95023,SAN BENITO,8316375711,Acute Care Hospitals,Government - Hospital District or Authority,Yes
421,050298,BARSTOW COMMUNITY HOSPITAL,555 SOUTH SEVENTH AVENUE,34.89424,-117.01883,BARSTOW,CA,92311,SAN BERNARDINO,7602561761,Acute Care Hospitals,Proprietary,Yes
422,050300,ST MARY MEDICAL CENTER,18300 HIGHWAY 18,34.54115,-117.26537,APPLE VALLEY,CA,92307,SAN BERNARDINO,7602422311,Acute Care Hospitals,Voluntary non-profit - Private,Yes
423,050301,UKIAH VALLEY MEDICAL CENTER/HOSPITAL D,275 HOSPITAL DRIVE,39.15301,-123.20326,UKIAH,CA,95482,MENDOCINO,7074623111,Acute Care Hospitals,Voluntary non-profit - Church,Yes
424,050305,ALTA BATES SUMMIT MEDICAL CENTER - ALTA BATES CAMP,2450 ASHBY AVE,37.85588,-122.25773,BERKELEY,CA,94705,ALAMEDA,5102044444,Acute Care Hospitals,Voluntary non-profit - Other,Yes
425,050308,EL CAMINO HOSPITAL,2500 GRANT ROAD,37.37027,-122.08271,MOUNTAIN VIEW,CA,94040,SANTA CLARA,6509407000,Acute Care Hospitals,Voluntary non-profit - Other,Yes
426,050309,SUTTER ROSEVILLE MEDICAL CENTER,ONE MEDICAL PLAZA,38.76517,-121.24985,ROSEVILLE,CA,95661,PLACER,9167811000,Acute Care Hospitals,Voluntary non-profit - Other,Yes
427,05030F,VA N CALIFORNIA HEALTHCARE SYSTEM,10535 HOSPITAL WAY,38.57243,-121.29645,MATHER                        ,CA,95655,SACRAMENTO,8003828387,ACUTE CARE - VETERANS ADMINISTRATION,Government Federal,Yes
428,050313,SUTTER TRACY COMMUNITY HOSPITAL,1420 N TRACY BLVD,37.74388,-121.43455,TRACY,CA,95376,SAN JOAQUIN,2098351500,Acute Care Hospitals,Voluntary non-profit - Private,Yes
429,050315,KERN MEDICAL CENTER,1700 MOUNT VERNON AVENUE,35.37988,-118.96755,BAKERSFIELD,CA,93306,KERN,6613262000,Acute Care Hospitals,Government - Local,Yes
430,05031F,PALO ALTO VA MEDICAL CENTER,3801 MIRANDA AVENUE,37.40491,-122.1404,PALO ALTO                     ,CA,94304,SANTA CLARA,6508583939,ACUTE CARE - VETERANS ADMINISTRATION,Government Federal,Yes
431,050320,ALAMEDA COUNTY MEDICAL CENTER,1411 E 31ST ST,37.79928,-122.23138,OAKLAND,CA,94602,ALAMEDA,4154374800,Acute Care Hospitals,Government - Local,Yes
432,050324,SCRIPPS MEMORIAL HOSPITAL LA JOLLA,9888 GENESEE AVENUE,32.8849,-117.22352,LA JOLLA,CA,92037,SAN DIEGO,8586264123,Acute Care Hospitals,Voluntary non-profit - Other,Yes
433,050327,LOMA LINDA UNIVERSITY MEDICAL CENTER,11234 ANDERSON ST,34.04931,-117.26112,LOMA LINDA,CA,92354,SAN BERNARDINO,9095584000,Acute Care Hospitals,Government - Federal,Yes
434,050329,CORONA REGIONAL MEDICAL CENTER,800 SOUTH MAIN STREET,33.87302,-117.56704,CORONA,CA,92882,RIVERSIDE,9517374343,Acute Care Hospitals,Proprietary,Yes
435,050334,SALINAS VALLEY MEMORIAL HOSPITAL,450 EAST ROMIE LANE,36.65973,-121.64639,SALINAS,CA,93901,MONTEREY,8317574333,Acute Care Hospitals,Voluntary non-profit - Other,Yes
436,050335,SONORA REGIONAL MEDICAL CENTER,1000 GREENLEY ROAD,37.97563,-120.36892,SONORA,CA,95370,TUOLUMNE,2095323161,Acute Care Hospitals,Voluntary non-profit - Church,Yes
437,050336,LODI MEMORIAL HOSPITAL,975 S FAIRMONT AVENUE,38.12164,-121.28627,LODI,CA,95240,SAN JOAQUIN,2093343411,Acute Care Hospitals,Voluntary non-profit - Other,Yes
438,050342,PIONEERS MEMORIAL HEALTHCARE DISTRICT,207 WEST LEGION ROAD,32.95994,-115.55296,BRAWLEY,CA,92227,IMPERIAL,7603513333,Acute Care Hospitals,Government - Hospital District or Authority,Yes
439,050348,UNIVERSITY OF CALIFORNIA IRVINE MED CENTER,101 CITY DRIVE SOUTH,33.78812,-117.88886,ORANGE,CA,92868,ORANGE,7144566112,Acute Care Hospitals,Government - Local,Yes
440,050349,CORCORAN DISTRICT HOSPITAL,1310 HANNA AVE,36.09973,-119.56416,CORCORAN,CA,93212,KINGS,5599925051,Acute Care Hospitals,Government - Hospital District or Authority,Yes
441,050350,BEVERLY HOSPITAL,309 W BEVERLY BLVD,34.0155,-118.10087,MONTEBELLO,CA,90640,LOS ANGELES,3237261222,Acute Care Hospitals,Voluntary non-profit - Private,Yes
442,050351,TORRANCE MEMORIAL MEDICAL CENTER,3330 LOMITA BLVD,33.81164,-118.34363,TORRANCE,CA,90509,LOS ANGELES,3103259110,Acute Care Hospitals,Voluntary non-profit - Other,Yes
443,050352,BARTON MEMORIAL HOSPITAL,2170 SOUTH AVENUE,38.91208,-119.99758,SOUTH LAKE TAHOE,CA,96158,EL DORADO,5305413420,Acute Care Hospitals,Voluntary non-profit - Private,Yes
444,050353,PROVIDENCE LITTLE COMPANY OF MARY MED CTR TORRANCE,4101 TORRANCE BLVD,33.83808,-118.35675,TORRANCE,CA,90503,LOS ANGELES,3105407676,Acute Care Hospitals,Voluntary non-profit - Church,Yes
445,050357,GOLETA VALLEY COTTAGE HOSPITAL,351 S PATTERSON AVE,34.43338,-119.81005,SANTA BARBARA,CA,93111,SANTA BARBARA,8056816446,Acute Care Hospitals,Voluntary non-profit - Other,Yes
446,050359,TULARE REGIONAL MEDICAL CENTER,869 CHERRY AVENUE,36.22145,-119.33873,TULARE,CA,93274,TULARE,5596880821,Acute Care Hospitals,Government - Hospital District or Authority,Yes
447,050360,MARIN GENERAL HOSPITAL,"250 BON AIR ROAD, PO BOX 8010",37.94861,-122.53689,GREENBRAE,CA,94904,MARIN,4159257900,Acute Care Hospitals,Government - Local,Yes
448,050367,NORTHBAY MEDICAL CENTER,1200 B  GALE WILSON BLVD,38.2614,-122.04657,FAIRFIELD,CA,94533,SOLANO,7076465000,Acute Care Hospitals,Voluntary non-profit - Other,Yes
449,050373,LAC+USC MEDICAL CENTER,1200 N STATE ST,34.06043,-118.20888,LOS ANGELES,CA,90033,ORANGE,3232262800,Acute Care Hospitals,Government - Local,Yes
450,050376,LAC/HARBOR-UCLA MED CENTER,1000 W CARSON ST,33.82979,-118.29472,TORRANCE,CA,90509,LOS ANGELES,3102222101,Acute Care Hospitals,Government - Local,Yes
451,050378,PACIFICA HOSPITAL OF THE VALLEY,9449 SAN FERNANDO RD,34.23996,-118.39608,SUN VALLEY,CA,91352,LOS ANGELES,8187673310,Acute Care Hospitals,Proprietary,Yes
452,050380,GOOD SAMARITAN HOSPITAL,2425 SAMARITAN DRIVE,37.25109,-121.94649,SAN JOSE,CA,95124,SANTA CLARA,4085592011,Acute Care Hospitals,Proprietary,Yes
453,050382,CITRUS VALLEY MEDICAL CENTER-IC CAMPUS,210 W  SAN BERNARDINO ROAD,34.08833,-117.89353,COVINA,CA,91723,LOS ANGELES,6268142468,Acute Care Hospitals,Voluntary non-profit - Other,Yes
454,050385,PALM DRIVE HOSPITAL,501 PETALUMA AVE,38.39651,-122.82003,SEBASTOPOL,CA,95472,SONOMA,7078238511,Acute Care Hospitals,Voluntary non-profit - Other,Yes
455,050390,HEMET VALLEY MEDICAL CENTER,1117 EAST DEVONSHIRE,33.75121,-116.96062,HEMET,CA,92543,RIVERSIDE,9516522811,Acute Care Hospitals,Government - Hospital District or Authority,Yes
456,050393,DOWNEY REGIONAL MEDICAL CENTER,11500 BROOKSHIRE AVENUE,33.93428,-118.13129,DOWNEY,CA,90241,LOS ANGELES,5269045000,Acute Care Hospitals,Voluntary non-profit - Private,Yes
457,050394,COMMUNITY MEMORIAL HOSPITAL SAN BUENAVENTURA,147 N BRENT ST,34.27503,-119.2582,VENTURA,CA,93003,VENTURA,8056525011,Acute Care Hospitals,Government - Federal,Yes
458,050396,SANTA BARBARA COTTAGE HOSPITAL,400 WEST PUEBLO,34.42958,-119.72325,SANTA BARBARA,CA,93102,SANTA BARBARA,8056827111,Acute Care Hospitals,Voluntary non-profit - Private,Yes
459,050397,COALINGA REGIONAL MEDICAL CENTER,1191 PHELPS AVENUE,36.15246,-120.34119,COALINGA,CA,93210,FRESNO,5599356400,Acute Care Hospitals,Government - Hospital District or Authority,Yes
460,050407,CHINESE HOSPITAL,845 JACKSON ST,37.79571,-122.40924,SAN FRANCISCO,CA,94133,SAN FRANCISCO,4159822400,Acute Care Hospitals,Voluntary non-profit - Other,Yes
461,050411,KAISER FOUNDATION HOSPITAL - SOUTH BAY,25825 SOUTH VERMONT AVENUE,33.78714,-118.29677,HARBOR CITY,CA,90710,LOS ANGELES,3105176441,Acute Care Hospitals,Voluntary non-profit - Other,Yes
462,050414,MERCY HOSPITAL OF FOLSOM,1650 CREEKSIDE DRIVE,38.67072,-121.14569,FOLSOM,CA,95630,SACRAMENTO,9169837400,Acute Care Hospitals,Voluntary non-profit - Private,Yes
463,050417,SUTTER COAST HOSPITAL,800 E WASHINGTON BLVD,41.77455,-124.19411,CRESCENT CITY,CA,95531,DEL NORTE,7074648860,Acute Care Hospitals,Government - Hospital District or Authority,Yes
464,050423,PALO VERDE HOSPITAL,250 NORTH FIRST STREET,33.6125,-114.59522,BLYTHE,CA,92225,RIVERSIDE,7609224115,Acute Care Hospitals,Government - Hospital District or Authority,Yes
465,050424,SCRIPPS GREEN HOSPITAL,10666 NORTH TORREY PINES ROAD,32.89716,-117.24232,LA JOLLA,CA,92037,SAN DIEGO,8585543600,Acute Care Hospitals,Voluntary non-profit - Private,No
466,050425,KAISER FOUNDATION HOSPITAL - SACRAMENTO,2025 MORSE AVENUE,38.60206,-121.3925,SACRAMENTO,CA,95825,SACRAMENTO,9169735000,Acute Care Hospitals,Voluntary non-profit - Private,Yes
467,050426,WEST ANAHEIM MEDICAL CENTER,3033 W ORANGE AVENUE,33.82574,-117.99591,ANAHEIM,CA,92804,ORANGE,7148273000,Acute Care Hospitals,Proprietary,Yes
468,050434,COLUSA REGIONAL MEDICAL CENTER,199 EAST WEBSTER ST,39.2067,-122.00024,COLUSA,CA,95932,COLUSA,5304585821,Acute Care Hospitals,Voluntary non-profit - Other,Yes
469,050435,FALLBROOK HOSPITAL,624 E ELDER ST,33.38078,-117.24406,FALLBROOK,CA,92028,SAN DIEGO,7607281191,Acute Care Hospitals,Government - Hospital District or Authority,Yes
470,050438,HUNTINGTON MEMORIAL HOSPITAL,100 W  CALIFORNIA BLVD,34.13384,-118.15196,PASADENA,CA,91109,LOS ANGELES,6263975000,Acute Care Hospitals,Voluntary non-profit - Private,Yes
471,050441,STANFORD HOSPITAL,300 PASTEUR DRIVE,37.43331,-122.17587,STANFORD,CA,94305,SANTA CLARA,6507235708,Acute Care Hospitals,Voluntary non-profit - Private,Yes
472,050444,MERCY MEDICAL CENTER,333 MERCY AVENUE,37.3402,-120.46662,MERCED,CA,95340,MERCED,2095645000,Acute Care Hospitals,Government - Local,Yes
473,050448,RIDGECREST REGIONAL HOSPITAL,1081 NORTH CHINA LAKE BLVD,35.641,-117.67108,RIDGECREST,CA,93555,KERN,7604463551,Acute Care Hospitals,Voluntary non-profit - Private,Yes
474,050454,UCSF MEDICAL CENTER,"505 PARNASSUS AVE, BOX 0296",37.76338,-122.45831,SAN FRANCISCO,CA,94143,SAN FRANCISCO,4153532733,Acute Care Hospitals,Voluntary non-profit - Other,Yes
475,050455,SAN JOAQUIN COMMUNITY HOSPITAL,2615 CHESTER AVENUE,35.38319,-119.01992,BAKERSFIELD,CA,93301,KERN,6613953000,Acute Care Hospitals,Voluntary non-profit - Church,Yes
476,050457,ST MARY'S MEDICAL CENTER,450 STANYAN ST,37.77423,-122.45456,SAN FRANCISCO,CA,94117,SAN FRANCISCO,4156681000,Acute Care Hospitals,Voluntary non-profit - Private,Yes
477,050464,DOCTORS MEDICAL CENTER,1441 FLORIDA AVENUE,37.66555,-120.99692,MODESTO,CA,95350,STANISLAUS,2095781211,Acute Care Hospitals,Proprietary,Yes
478,050468,MEMORIAL HOSPITAL OF GARDENA,1145 W REDONDO BEACH BLVD,33.89258,-118.29493,GARDENA,CA,90247,LOS ANGELES,3105324200,Acute Care Hospitals,Proprietary,Yes
479,050471,GOOD SAMARITAN HOSPITAL,1225 WILSHIRE BOULEVARD,34.05467,-118.26554,LOS ANGELES,CA,90017,LOS ANGELES,2139772121,Acute Care Hospitals,Proprietary,Yes
480,050481,WEST HILLS HOSPITAL & MEDICAL CENTER,7300 MEDICAL CENTER DR,34.20311,-118.62943,WEST HILLS,CA,91307,LOS ANGELES,8186764100,Acute Care Hospitals,Proprietary,Yes
481,050485,LONG BEACH MEMORIAL MEDICAL CENTER,2801 ATLANTIC AVE,33.80808,-118.18647,LONG BEACH,CA,90806,LOS ANGELES,5629332000,Acute Care Hospitals,Voluntary non-profit - Other,Yes
482,050488,EDEN MEDICAL CENTER,20103 LAKE CHABOT ROAD,37.6973,-122.08661,CASTRO VALLEY,CA,94546,ALAMEDA,5105371234,Acute Care Hospitals,Voluntary non-profit - Other,Yes
483,050492,CLOVIS COMMUNITY MEDICAL CENTER,2755 HERNDON AVE,36.83913,-119.66109,CLOVIS,CA,93611,FRESNO,5593244000,Acute Care Hospitals,Voluntary non-profit - Private,Yes
484,050496,JOHN MUIR MEDICAL CENTER - CONCORD CAMPUS,2540 EAST ST,37.98254,-122.03303,CONCORD,CA,94520,CONTRA COSTA,9256742002,Acute Care Hospitals,Voluntary non-profit - Private,Yes
485,050498,SUTTER AUBURN FAITH HOSPITAL,11815 EDUCATION STREET,38.94444,-121.10042,AUBURN,CA,95603,PLACER,5308884500,Acute Care Hospitals,Voluntary non-profit - Other,Yes
486,050502,SAINT VINCENT MEDICAL CENTER,2131 W 3RD ST,34.06313,-118.27339,LOS ANGELES,CA,90057,LOS ANGELES,2134847111,Acute Care Hospitals,Voluntary non-profit - Church,Yes
487,050503,SCRIPPS MEMORIAL HOSPITAL - ENCINITAS,354 SANTA FE DRIVE,33.03621,-117.28393,ENCINITAS,CA,92024,SAN DIEGO,7607536501,Acute Care Hospitals,Voluntary non-profit - Private,Yes
488,050506,SIERRA VISTA REGIONAL MEDICAL CENTER,1010 MURRAY ST,35.29217,-120.66623,SAN LUIS OBISPO,CA,93405,SAN LUIS OBISPO,8505467600,Acute Care Hospitals,Proprietary,Yes
489,050510,KAISER FOUNDATION HOSPITAL,99 MONTECILLO RD,38.00452,-122.55398,SAN RAFAEL,CA,94903,MARIN,4154442000,Acute Care Hospitals,Voluntary non-profit - Other,Yes
490,050512,KAISER FOUNDATION HOSPITAL FREMONT/HAYWARD,27400 HESPERIAN BLVD,37.63043,-122.0954,HAYWARD,CA,94545,ALAMEDA,5107844000,Acute Care Hospitals,Voluntary non-profit - Other,Yes
491,050515,KAISER FOUNDATION HOSPITAL - SAN DIEGO,4647 ZION AVE,32.79296,-117.09458,SAN DIEGO,CA,92120,SAN DIEGO,6195285000,Acute Care Hospitals,Voluntary non-profit - Other,Yes
492,050516,MERCY SAN JUAN MEDICAL CENTER,6501 COYLE AVE,38.66918,-121.31339,CARMICHAEL,CA,95608,SACRAMENTO,9165375000,Acute Care Hospitals,Voluntary non-profit - Other,Yes
493,050517,VICTOR VALLEY COMMUNITY HOSPITAL,15248 11TH ST,34.52815,-117.29378,VICTORVILLE,CA,92392,SAN BERNARDINO,7602458691,Acute Care Hospitals,Voluntary non-profit - Other,Yes
494,050523,SUTTER DELTA MEDICAL CENTER,3901 LONE TREE WAY,37.982295,-121.804681,ANTIOCH,CA,94509,CONTRA COSTA,9257797200,Acute Care Hospitals,Voluntary non-profit - Private,Yes
495,050526,HUNTINGTON BEACH HOSPITAL,17772 BEACH BLVD,33.70312,-117.98793,HUNTINGTON BEACH,CA,92647,ORANGE,7148435000,Acute Care Hospitals,Proprietary,Yes
496,050528,MEMORIAL HOSPITAL LOS BANOS,520 WEST I ST,37.06344,-120.85938,LOS BANOS,CA,93635,MERCED,2098260591,Acute Care Hospitals,Voluntary non-profit - Other,Yes
497,050531,BELLFLOWER MEDICAL CENTER,9542 E ARTESIA BLVD,33.87408,-118.12945,BELLFLOWER,CA,90706,LOS ANGELES,5629258355,Acute Care Hospitals,Proprietary,Yes
498,050534,"JOHN F KENNEDY MEMORIAL HOSPITAL, INC",47-111 MONROE STREET,33.70745,-116.23387,INDIO,CA,92201,RIVERSIDE,7603476191,Acute Care Hospitals,Proprietary,Yes
499,050537,SUTTER DAVIS HOSPITAL,2000 SUTTER PLACE,38.56285,-121.77132,DAVIS,CA,95616,YOLO,5307566440,Acute Care Hospitals,Proprietary,Yes
500,050541,KAISER FOUNDATION HOSPITAL - REDWOOD CITY,1150 VETERANS BOULEVARD,37.48945,-122.22274,REDWOOD CITY,CA,94063,SAN MATEO,6502992000,Acute Care Hospitals,Voluntary non-profit - Other,Yes
501,050543,COLLEGE HOSPITAL COSTA MESA,301 VICTORIA STREET,33.65215,-117.91201,COSTA MESA,CA,92627,ORANGE,9496422734,Acute Care Hospitals,Proprietary,No
502,050547,SONOMA DEVELOPMENTAL CENTER,P O BOX 1493,38.34666,-122.51452,ELDRIDGE,CA,95431,SONOMA,7079386393,Acute Care Hospitals,Government - Federal,Yes
503,050549,LOS ROBLES HOSPITAL & MEDICAL CENTER,215 W JANSS RD,34.20708,-118.88269,THOUSAND OAKS,CA,91360,VENTURA,8054972727,Acute Care Hospitals,Proprietary,Yes
504,050551,LOS ALAMITOS MEDICAL CENTER,3751 KATELLA AVENUE,33.80384,-118.06685,LOS ALAMITOS,CA,90720,ORANGE,5627993220,Acute Care Hospitals,Proprietary,Yes
505,050552,MOTION PICTURE & TELEVISION HOSPITAL,23388 MULHOLLAND DRIVE,34.157,-118.63542,WOODLAND HILLS,CA,91364,LOS ANGELES,8188761888,Acute Care Hospitals,Voluntary non-profit - Other,No
506,050557,MEMORIAL  MEDICAL CENTER,1700 COFFEE RD,37.6688,-120.97336,MODESTO,CA,95355,STANISLAUS,2095264500,Acute Care Hospitals,Voluntary non-profit - Other,Yes
507,050561,KAISER FOUNDATION HOSPITAL - WEST LA,6041 CADILLAC AVE,34.03866,-118.37636,LOS ANGELES,CA,90034,LOS ANGELES,2138572201,Acute Care Hospitals,Voluntary non-profit - Private,Yes
508,050567,MISSION HOSPITAL REGIONAL MED CENTER,27700 MEDICAL CENTER RD,33.56052,-117.66627,MISSION VIEJO,CA,92691,ORANGE,9493641400,Acute Care Hospitals,Proprietary,Yes
509,050568,MADERA COMMUNITY HOSPITAL,1250 E ALMOND AVE,36.94542,-120.04522,MADERA,CA,93637,MADERA,5596755555,Acute Care Hospitals,Voluntary non-profit - Other,Yes
510,050570,FOUNTAIN VALLEY REGIONAL HOSPITAL & MEDICAL CENTER,17100 EUCLID STREET,33.71442,-117.93466,FOUNTAIN VALLEY,CA,92708,ORANGE,7149667200,Acute Care Hospitals,Proprietary,Yes
511,050573,EISENHOWER MEDICAL CENTER,39-000 BOB HOPE DRIVE,33.77454,-116.40675,RANCHO MIRAGE,CA,92270,RIVERSIDE,7603403911,Acute Care Hospitals,Proprietary,Yes
512,050575,TRI-CITY REGIONAL MEDICAL CENTER,21530 S PIONEER BLVD,33.83377,-118.08181,HAWAIIAN GARDENS,CA,90716,LOS ANGELES,5628600401,Acute Care Hospitals,Government - Hospital District or Authority,Yes
513,050580,LA PALMA INTERCOMMUNITY HOSPITAL,7901 WALKER STREET,33.84709,-118.03816,LA PALMA,CA,90623,ORANGE,7146707400,Acute Care Hospitals,Proprietary,Yes
514,050581,LAKEWOOD REGIONAL MEDICAL CENTER,3700 E SOUTH ST,33.85973,-118.14977,LAKEWOOD,CA,90712,LOS ANGELES,5626026751,Acute Care Hospitals,Proprietary,Yes
515,050586,CHINO VALLEY MEDICAL CENTER,5451 WALNUT AVE,34.02599,-117.68602,CHINO,CA,91710,SAN BERNARDINO,9096276111,Acute Care Hospitals,Proprietary,Yes
516,050588,SAN DIMAS COMMUNITY HOSPITAL,1350 W COVINA BLVD,34.09806,-117.83457,SAN DIMAS,CA,91773,LOS ANGELES,9095996811,Acute Care Hospitals,Proprietary,Yes
517,050589,PLACENTIA LINDA HOSPITAL,1301 N ROSE DRIVE,33.88663,-117.84329,PLACENTIA,CA,92870,ORANGE,7149932000,Acute Care Hospitals,Proprietary,Yes
518,050590,METHODIST HOSPITAL OF SACRAMENTO,7500 HOSPITAL DRIVE,38.46361,-121.41595,SACRAMENTO,CA,95823,SACRAMENTO,9164236010,Acute Care Hospitals,Voluntary non-profit - Other,Yes
519,050597,FOOTHILL PRESBYTERIAN HOSPITAL,250 S GRAND AVE,34.13327,-117.87125,GLENDORA,CA,91740,LOS ANGELES,6269638411,Acute Care Hospitals,Voluntary non-profit - Private,Yes
520,050599,UNIVERSITY OF CALIFORNIA DAVIS MEDICAL CENTER,2315 STOCKTON BOULEVARD,38.55433,-121.45752,SACRAMENTO,CA,95817,SACRAMENTO,9167342011,Acute Care Hospitals,Voluntary non-profit - Other,Yes
521,050603,SADDLEBACK MEMORIAL MEDICAL CENTER,24451 HEALTH CENTER DRIVE,33.60889,-117.70951,LAGUNA HILLS,CA,92653,ORANGE,9498374500,Acute Care Hospitals,Voluntary non-profit - Private,Yes
522,050604,KAISER FOUNDATION HOSPITAL-SAN JOSE,250 HOSPITAL PARKWAY,37.23977,-121.7997,SAN JOSE,CA,95119,SANTA CLARA,4089727000,Acute Care Hospitals,Voluntary non-profit - Private,Yes
523,050608,DELANO REGIONAL MEDICAL CENTER,1401 GARCES HIGHWAY,35.76157,-119.23882,DELANO,CA,93215,KERN,6617254800,Acute Care Hospitals,Proprietary,Yes
524,050609,KAISER FOUNDATION HOSPITAL ANAHEIM,441 N LAKEVIEW AVENUE,33.8535,-117.81722,ANAHEIM,CA,92807,ORANGE,7142794000,Acute Care Hospitals,Voluntary non-profit - Other,Yes
525,050616,ST JOHNS PLEASANT VALLEY HOSPITAL,2309 ANTONIO AVE,34.24325,-119.01941,CAMARILLO,CA,93010,VENTURA,8053895800,Acute Care Hospitals,Voluntary non-profit - Church,Yes
526,050618,BEAR VALLEY COMMUNITY HOSPITAL,41870 GARSTIN DR,34.24633,-116.88795,BIG BEAR LAKE,CA,92315,SAN BERNARDINO,9098666501,Acute Care Hospitals,Voluntary non-profit - Church,Yes
527,050624,HENRY MAYO NEWHALL MEMORIAL HOSPITAL,23845  MCBEAN PKWY,34.39711,-118.55362,VALENCIA,CA,91355,LOS ANGELES,6612538000,Acute Care Hospitals,Voluntary non-profit - Private,Yes
528,050625,CEDARS-SINAI MEDICAL CENTER,8700 BEVERLY BLVD,34.075496,-118.380122,LOS ANGELES,CA,90048,LOS ANGELES,3104235000,Acute Care Hospitals,Voluntary non-profit - Other,Yes
529,050633,TWIN CITIES COMMUNITY HOSPITAL,1100 LAS TABLAS RD,35.55474,-120.71978,TEMPLETON,CA,93465,SAN LUIS OBISPO,8054343500,Acute Care Hospitals,Proprietary,Yes
530,050636,POMERADO HOSPITAL,15615 POMERADO ROAD,32.99663,-117.05538,POWAY,CA,92064,SAN DIEGO,8584856511,Acute Care Hospitals,Government - Hospital District or Authority,Yes
531,050641,EAST LOS ANGELES DOCTORS HOSPITAL,4060 WHITTIER BLVD,34.02331,-118.18466,LOS ANGELES,CA,90023,LOS ANGELES,3232685514,Acute Care Hospitals,Proprietary,Yes
532,050644,LOS ANGELES METROPOLITAN MEDICAL CTR,2231 S WESTERN AVE,34.03519,-118.30899,LOS ANGELES,CA,90018,LOS ANGELES,3237307300,Acute Care Hospitals,Proprietary,No
533,050660,USC KENNETH NORRIS JR CANCER HOSPITAL,1441 EASTLAKE AVE,34.06134,-118.20558,LOS ANGELES,CA,90089,LOS ANGELES,3238653000,Acute Care Hospitals,Voluntary non-profit - Other,No
534,050663,LOS ANGELES COMMUNITY HOSPITAL,4081 E OLYMPIC BLVD,34.01925,-118.18679,LOS ANGELES,CA,90023,LOS ANGELES,3233670477,Acute Care Hospitals,Proprietary,Yes
535,050668,LAGUNA HONDA HOSPITAL & REHABILITATION CENTER,375 LAGUNA HONDA BLVD,37.74773,-122.45714,SAN FRANCISCO,CA,94116,SAN FRANCISCO,4157592300,Acute Care Hospitals,Government - Local,Yes
536,050674,KAISER FOUNDATION HOSP SO SACRAMENTO,6600 BRUCEVILLE ROAD,38.47146,-121.42424,SACRAMENTO,CA,95823,SACRAMENTO,9166882000,Acute Care Hospitals,Voluntary non-profit - Other,Yes
537,050677,KAISER FOUNDATION HOSPITAL - WOODLAND HILLS,5601 DE SOTO,34.17094,-118.5887,WOODLAND HILLS,CA,91367,LOS ANGELES,8187193800,Acute Care Hospitals,Voluntary non-profit - Private,Yes
538,050678,ORANGE COAST MEMORIAL MEDICAL CENTER,9920 TALBERT AVENUE,33.70115,-117.9566,FOUNTAIN VALLEY,CA,92708,ORANGE,7143787406,Acute Care Hospitals,Voluntary non-profit - Private,Yes
539,050684,MENIFEE VALLEY MEDICAL CENTER,28400 MCCALL B0ULEVARD,33.71781,-117.16773,SUN CITY,CA,92585,RIVERSIDE,9516798888,Acute Care Hospitals,Government - Hospital District or Authority,Yes
540,050686,"KAISER FOUNDATION HOSPITAL, RIVERSIDE",10800 MAGNOLIA AVENUE,33.90474,-117.46991,RIVERSIDE,CA,92505,RIVERSIDE,9513532000,Acute Care Hospitals,Government - Hospital District or Authority,Yes
541,050688,SAINT LOUISE REGIONAL HOSPITAL,9400 NO NAME UNO,37.0353,-121.57312,GILROY,CA,95020,SANTA CLARA,4088482000,Acute Care Hospitals,Voluntary non-profit - Church,Yes
542,050689,SAN RAMON REGIONAL MEDICAL CTR,6001 NORRIS CANYON ROAD,37.77653,-121.9586,SAN RAMON,CA,94583,CONTRA COSTA,9252759200,Acute Care Hospitals,Proprietary,Yes
543,050690,KAISER FOUNDATION HOSPITAL-SANTA ROSA,401 BICENTENNIAL WAY,38.4714,-122.72635,SANTA ROSA,CA,95403,SONOMA,7075714000,Acute Care Hospitals,Voluntary non-profit - Other,Yes
544,050696,KECK HOSPITAL OF USC,1500 SAN PABLO ST,34.0626,-118.20195,LOS ANGELES,CA,90033,LOS ANGELES,3234428656,Acute Care Hospitals,Voluntary non-profit - Other,No
545,050697,PATIENTS' HOSPITAL OF REDDING,2900 EUREKA WAY,40.58592,-122.4166,REDDING,CA,96001,SHASTA,5302258700,Acute Care Hospitals,Proprietary,No
546,050701,SOUTHWEST HEALTHCARE SYSTEM,25500 MEDICAL CENTER DRIVE,33.55856,-117.18342,MURRIETA,CA,92562,RIVERSIDE,9516966000,Acute Care Hospitals,Proprietary,Yes
547,050704,MISSION COMMUNITY HOSPITAL - PANORAMA,14850 ROSCOE BLVD,34.22148,-118.4566,PANORAMA CITY,CA,91402,LOS ANGELES,8187872222,Acute Care Hospitals,Voluntary non-profit - Private,Yes
548,050708,FRESNO SURGICAL HOSPITAL,6125 NORTH FRESNO ST,36.82544,-119.7819,FRESNO,CA,93710,FRESNO,5594318000,Acute Care Hospitals,Voluntary non-profit - Private,No
549,050709,DESERT VALLEY HOSPITAL,16850 BEAR VALLEY RD,34.47161,-117.29803,VICTORVILLE,CA,92395,SAN BERNARDINO,7602418000,Acute Care Hospitals,Proprietary,Yes
550,050710,KAISER FOUNDATION HOSPITAL - FRESNO,7300 NORTH FRESNO ST,36.84339,-119.78337,FRESNO,CA,93720,FRESNO,5594484500,Acute Care Hospitals,Voluntary non-profit - Private,Yes
551,050714,SUTTER MATERNITY & SURGERY CENTER OF SANTA CRUZ,2900 CHANTICLEER AVENUE,36.98779,-121.97779,SANTA CRUZ,CA,95065,SANTA CRUZ,8314772200,Acute Care Hospitals,Voluntary non-profit - Private,No
552,050717,LAC/RANCHO LOS AMIGOS NATIONAL REHABILITATION  CTR,7601 EAST IMPERIAL HIGHWAY,33.92717,-118.15752,DOWNEY,CA,90242,ORANGE,5624017022,Acute Care Hospitals,Government - Local,No
553,050723,KAISER FOUNDATION HOSPITAL - BALDWIN PARK,1011 BALDWIN PARK BLVD,34.06603,-117.98533,BALDWIN PARK,CA,91706,LOS ANGELES,6268511011,Acute Care Hospitals,Voluntary non-profit - Other,Yes
554,050724,BAKERSFIELD HEART HOSPITAL,3001 SILLECT AVENUE,35.38559,-119.03995,BAKERSFIELD,CA,93308,KERN,6613166000,Acute Care Hospitals,Proprietary,Yes
555,050726,STANISLAUS SURGICAL HOSPITAL,1421 OAKDALE ROAD,37.66449,-120.95839,MODESTO,CA,95355,STANISLAUS,2095722700,Acute Care Hospitals,Proprietary,No
556,050727,COMMUNITY HOSPITAL OF LONG BEACH,1720 TERMINO AVENUE,33.78898,-118.14464,LONG BEACH,CA,90804,LOS ANGELES,5624940600,Acute Care Hospitals,Voluntary non-profit - Private,Yes
557,050732,FRESNO HEART AND SURGICAL HOSPITAL,15 EAST AUDUBON DRIVE,36.86094,-119.78877,FRESNO,CA,93720,FRESNO,5594338000,Acute Care Hospitals,Voluntary non-profit - Private,No
558,050735,WHITTIER HOSPITAL MEDICAL CENTER,9080 COLIMA RD,33.95021,-118.00422,WHITTIER,CA,90605,LOS ANGELES,5629453561,Acute Care Hospitals,Proprietary,Yes
559,050736,MONTEREY PARK HOSPITAL,900 S ATLANTIC BLVD,34.0505,-118.13778,MONTEREY PARK,CA,91754,LOS ANGELES,6265709000,Acute Care Hospitals,Proprietary,Yes
560,050737,GARFIELD MEDICAL CENTER,525 N GARFIELD AVE,34.06785,-118.12343,MONTEREY PARK,CA,91754,LOS ANGELES,6265732222,Acute Care Hospitals,Proprietary,Yes
561,050738,GREATER EL MONTE COMMUNITY HOSPITAL,1701 SANTA ANITA AVE,34.04763,-118.04322,SOUTH EL MONTE,CA,91733,LOS ANGELES,6263507975,Acute Care Hospitals,Voluntary non-profit - Private,No
562,050739,CENTINELA HOSPITAL MEDICAL CENTER,555 EAST HARDY STREET,33.95089,-118.34847,INGLEWOOD,CA,90301,LOS ANGELES,3106734660,Acute Care Hospitals,Proprietary,Yes
563,050740,MARINA DEL REY HOSPITAL,4650 LINCOLN BLVD,33.98197,-118.43982,MARINA DEL REY,CA,90291,LOS ANGELES,3108238911,Acute Care Hospitals,Proprietary,Yes
564,050742,OLYMPIA MEDICAL CENTER,5900 WEST OLYMPIC BOULEVARD,34.05757,-118.36008,LOS ANGELES,CA,90036,LOS ANGELES,3106575900,Acute Care Hospitals,Proprietary,Yes
565,050744,WESTERN MEDICAL CENTER HOSP ANAHEIM,1025 S ANAHEIM BLVD,33.81988,-117.90903,ANAHEIM,CA,92805,ORANGE,7145336220,Acute Care Hospitals,Proprietary,Yes
566,050745,CHAPMAN MEDICAL CENTER,2601 E CHAPMAN AVE,33.7881,-117.82643,ORANGE,CA,92869,ORANGE,7146330011,Acute Care Hospitals,Proprietary,Yes
567,050746,WESTERN MEDICAL CENTER SANTA ANA,1001 NORTH TUSTIN AVENUE,33.754,-117.83331,SANTA ANA,CA,92705,ORANGE,7149533331,Acute Care Hospitals,Proprietary,Yes
568,050747,COASTAL COMMUNITIES HOSPITAL,2701 S BRISTOL ST,33.7111,-117.88511,SANTA ANA,CA,92704,ORANGE,7147545454,Acute Care Hospitals,Proprietary,Yes
569,050748,KAISER FOUNDATION HOSPITAL MANTECA,1777 WEST YOSEMITE AVE,37.79814,-121.24673,MANTECA,CA,95337,SAN JOAQUIN,2098253700,Acute Care Hospitals,Voluntary non-profit - Private,Yes
570,050749,THOUSAND OAKS SURGICAL HOSPITAL,401 ROLLING OAKS DR,34.17444,-118.86891,THOUSAND OAKS,CA,91361,VENTURA,8057777750,Acute Care Hospitals,Proprietary,No
571,050751,MIRACLE MILE MEDICAL CENTER,6000 SAN VICENTE BLVD,34.05739,-118.36202,LOS ANGELES,CA,90036,LOS ANGELES,3239301040,Acute Care Hospitals,Proprietary,No
572,050752,BROTMAN MEDICAL CENTER,3828 DELMAS TERRACE,34.02266,-118.39718,CULVER CITY,CA,90231,LOS ANGELES,3108367000,Acute Care Hospitals,Proprietary,Yes
573,050754,MENLO PARK SURGICAL HOSPITAL,570 WILLOW ROAD,37.46179,-122.15898,MENLO PARK,CA,94025,SAN MATEO,6503248500,Acute Care Hospitals,Voluntary non-profit - Private,No
